Location_id,address_1,address_2,city,state,zip,county,location_source_value,latitude,longitude,address_type,state_abbr,flag,user_id,start_date,end_duration,end_date
18259,48 Calle Cementerio,,Jayuya,PR,00664,,"48 CALLE CEMENTERIO, JAYUYA, PR 00664",18.214094011713623,-66.58261587509762,Street Address,PR,SUCCESSFUL ADDRESS,1,2010-08-21,439 days 00:00:00,2011-11-03
2924,12 Cole Rd,,Raymond,ME,4071,,"12 COLE RD, RAYMOND, ME 4071",43.88752700018534,-70.41582099990747,Street Address,ME,SUCCESSFUL ADDRESS,1,2016-10-10,976 days 00:00:00,2019-06-13
19696,2001 Mount Holly Huntersville Road,,Charlotte,NC,28214,,"2001 Mount Holly - Huntersville Road, Charlotte, NC 28214",35.3152166417205,-80.96500285954062,Street Address,NC,SUCCESSFUL ADDRESS,1,2019-10-28,764 days 00:00:00,2021-11-30
13340,440 Main Street,,Lyons,Nebraska,68038,,"440 Main Street, Lyons, Nebraska 68038",41.9375430000001,-96.4692469999999,Street Address,NE,SUCCESSFUL ADDRESS,1,2023-10-10,779 days 00:00:00,2025-11-27
7394,191 Woodport Rd,STE 205,Sparta,NJ,7871,,"191 WOODPORT RD STE 205, SPARTA, NJ 7871",41.02464699984821,-74.63057599974215,Street Address,NJ,SUCCESSFUL ADDRESS,3,2006-10-30,614 days 00:00:00,2008-07-05
12909,234 Berenwood Drive,,Berea,KY,40403,,"234 BERENWOOD DRIVE, BEREA, KY 40403",37.56806754631749,-84.311897043524,Street Address,KY,SUCCESSFUL ADDRESS,3,2016-03-10,382 days 00:00:00,2017-03-27
12384,104 E Main St,,Chambers,Nebraska,68725,,"104 E Main St, Chambers, Nebraska 68725",42.257793,-98.3448059999999,Street Address,NE,SUCCESSFUL ADDRESS,3,2017-12-29,629 days 00:00:00,2019-09-19
4494,1709 Harper Road,,Beckley,WV,25801,,"1709 HARPER ROAD, BECKLEY, WV 25801",37.786457698674354,-81.2034127598274,Street Address,WV,SUCCESSFUL ADDRESS,3,2018-06-12,736 days 00:00:00,2020-06-17
12871,180 North 300 West,,Millville,UT,84326,,"180 NORTH 300 WEST, MILLVILLE, UT 84326",41.685564483775856,-111.82983335701906,Street Address,UT,SUCCESSFUL ADDRESS,4,2007-02-03,649 days 00:00:00,2008-11-13
2900,3435 Broadway,,Kansas City,MO,64111,,"3435 BROADWAY, KANSAS CITY, MO 64111",39.04835536232862,-94.58342062535026,Street Address,MO,SUCCESSFUL ADDRESS,4,2014-09-02,678 days 00:00:00,2016-07-11
16208,600 North Fourth Street,,Burlington,Kansas,66839,,"600 North Fourth Street, Burlington, Kansas 66839",38.199461,-95.7386369999999,Street Address,KS,SUCCESSFUL ADDRESS,4,2023-08-18,909 days 00:00:00,2026-02-12
13331,214 Railroad Avenue,,Clayton,DE,19938,,"214 Railroad Avenue, Clayton, DE 19938",39.2919150170038,-75.63442027987385,Street Address,DE,SUCCESSFUL ADDRESS,4,2023-11-17,992 days 00:00:00,2026-08-05
5917,10500 East Smith Road,,Denver,CO,80239,,"10500 EAST SMITH ROAD, DENVER, CO 80239",39.76735400589988,-104.8637576766715,Street Address,CO,SUCCESSFUL ADDRESS,5,2000-04-29,866 days 00:00:00,2002-09-12
7488,10930 E 10Th St,,Indianapolis,IN,46229,,"10930 E 10TH ST, INDIANAPOLIS, IN 46229",39.78311432913765,-85.97277539090476,Street Address,IN,SUCCESSFUL ADDRESS,5,2018-07-17,887 days 00:00:00,2020-12-20
15884,1420 Industrial Park Rd,,Wiggins,MS,39577,,"1420 INDUSTRIAL PARK RD, WIGGINS, MS 39577",30.83619281527341,-89.13456298831463,Street Address,MS,SUCCESSFUL ADDRESS,6,2002-11-02,498 days 00:00:00,2004-03-14
9834,301 Calle Del Carbon,,Bernalillo,NM,87004,,"301 CALLE DEL CARBON, BERNALILLO, NM 87004",35.313423460006625,-106.54246471020193,Street Address,NM,SUCCESSFUL ADDRESS,6,2010-01-03,950 days 00:00:00,2012-08-10
3273,16451 Flint St,,Overland Park,KS,66062,,"16451 FLINT ST, OVERLAND PARK, KS 66062",38.82954494199026,-94.71826242702429,Street Address,KS,SUCCESSFUL ADDRESS,8,2016-05-19,395 days 00:00:00,2017-06-18
3076,4340 Broad River Rd,,Columbia,SC,29210,,"4340 BROAD RIVER RD, COLUMBIA, SC 29210",34.06509976568351,-81.11541953022784,Street Address,SC,SUCCESSFUL ADDRESS,9,2000-06-14,372 days 00:00:00,2001-06-21
15864,156 Canada Toto Road,,Barrigada,GU,96913,,"156 CANADA TOTO ROAD, BARRIGADA, GU 96913",13.471086177394136,144.79356757598413,Street Address,GU,SUCCESSFUL ADDRESS,9,2015-09-03,824 days 00:00:00,2017-12-05
10807,601 Main Street,,Osawatomie,Kansas,66064,,"601 Main Street, Osawatomie, Kansas 66064",38.4988030000001,-94.9510469999999,Street Address,KS,SUCCESSFUL ADDRESS,10,2004-01-03,775 days 00:00:00,2006-02-16
18094,417 Commercial Street,,Greenleaf,Kansas,66943,,"417 Commercial Street, Greenleaf, Kansas 66943",39.726211,-96.9767959999999,Street Address,KS,SUCCESSFUL ADDRESS,10,2004-10-27,953 days 00:00:00,2007-06-07
9275,720 E Main St,,Mount Kisco,NY,10549,,"720 E MAIN ST, MOUNT KISCO, NY 10549",41.18879599997261,-73.73295799962425,Street Address,NY,SUCCESSFUL ADDRESS,10,2007-08-20,605 days 00:00:00,2009-04-16
9347,22 Litchfield Rd,,Kittery,ME,3904,,"22 LITCHFIELD RD, KITTERY, ME 3904",43.117834000218345,-70.7331680004036,Street Address,ME,SUCCESSFUL ADDRESS,10,2010-05-01,506 days 00:00:00,2011-09-19
5021,192 Dero Drive,,Ordot,GU,96910,,"192 DERO DRIVE, ORDOT, GU 96910",13.446023355409276,144.75846155391963,Street Address,GU,SUCCESSFUL ADDRESS,10,2010-05-03,755 days 00:00:00,2012-05-27
18931,513 Polk Street,,Sparta,TN,38583,,"513 Polk Street, Sparta, TN 38583",35.9356092879358,-85.47774312380308,Street Address,TN,SUCCESSFUL ADDRESS,11,2005-02-24,913 days 00:00:00,2007-08-26
1850,315 Churchill Rd,,Fort Worth,TX,76114,,"315 CHURCHILL RD, FORT WORTH, TX 76114",32.76406128282768,-97.39151095142358,Street Address,TX,SUCCESSFUL ADDRESS,11,2019-05-02,564 days 00:00:00,2020-11-16
784,75 W Cedar Ave,,Coldspring,TX,77331,,"75 W CEDAR AVE, COLDSPRING, TX 77331",30.590947667428715,-95.12961407243596,Street Address,TX,SUCCESSFUL ADDRESS,12,2002-10-31,797 days 00:00:00,2005-01-05
19923,1701 Lincoln Way,,Coeur D Alene,ID,83814,,"1701 LINCOLN WAY, COEUR D ALENE, ID 83814",47.69108882808058,-116.79213799984066,Street Address,ID,SUCCESSFUL ADDRESS,12,2010-02-21,683 days 00:00:00,2012-01-05
19096,500 C Street Southwest,,Washington,DC,20024,,"500 C STREET SOUTHWEST, WASHINGTON, DC 20024",38.885555707811264,-77.01858213690339,Street Address,DC,SUCCESSFUL ADDRESS,12,2010-10-19,580 days 00:00:00,2012-05-21
2542,590 Hwy 431,,Fairfield,MT,59436,,"590 HWY 431, FAIRFIELD, MT 59436",47.63880066590104,-111.86118985241016,Street Address,MT,SUCCESSFUL ADDRESS,12,2010-12-19,856 days 00:00:00,2013-04-23
14435,3400 Parkwood Drive,,Brunswick,GA,31520,,"3400 PARKWOOD DRIVE, BRUNSWICK, GA 31520",31.171989945211823,-81.473789487079,Street Address,GA,SUCCESSFUL ADDRESS,13,2000-04-24,461 days 00:00:00,2001-07-29
10484,885 Barnaby Street Se,,Washington,DC,20032,,"885 BARNABY STREET SE, WASHINGTON, DC 20032",38.83179357026521,-76.99062855592824,Street Address,DC,SUCCESSFUL ADDRESS,13,2000-11-10,549 days 00:00:00,2002-05-13
12016,503 South Main Street,,Shattuck,Oklahoma,73858,,"503 South Main Street, Shattuck, Oklahoma 73858",36.27196,-99.8816059999999,Street Address,OK,SUCCESSFUL ADDRESS,13,2006-01-04,673 days 00:00:00,2007-11-08
8023,18100 Cumberland Rd,,Noblesville,IN,46060,,"18100 CUMBERLAND RD, NOBLESVILLE, IN 46060",40.053162130586,-85.99419656056551,Street Address,IN,SUCCESSFUL ADDRESS,14,2004-11-06,539 days 00:00:00,2006-04-29
461,850 2Nd Avenue West,,New England,ND,58647,,"850 2ND AVENUE WEST, NEW ENGLAND, ND 58647",46.54008806175308,-102.87131578122488,Street Address,ND,SUCCESSFUL ADDRESS,14,2017-06-12,397 days 00:00:00,2018-07-14
9686,450 West Cobb Street,,Grove Hill,AL,36451,,"450 WEST COBB STREET, GROVE HILL, AL 36451",31.70898018211368,-87.79158429541184,Street Address,AL,SUCCESSFUL ADDRESS,14,2023-05-07,986 days 00:00:00,2026-01-17
6168,100 Jimmy Love Lane,,Columbia,SC,29212,,"100 JIMMY LOVE LANE, COLUMBIA, SC 29212",34.05967042448286,-81.16379887937775,Street Address,SC,SUCCESSFUL ADDRESS,15,2006-09-09,438 days 00:00:00,2007-11-21
1159,305 4th St W,, Clear Lake,South Dakota,57226,,"305 4th St W, Clear Lake, South Dakota 57226",44.7924180000001,-96.4574459999999,Street Address,SD,SUCCESSFUL ADDRESS,15,2009-03-11,491 days 00:00:00,2010-07-15
2876,1700 East Venice Avenue,,Venice,FL,34292,,"1700 EAST VENICE AVENUE, VENICE, FL 34292",27.100263550685785,-82.40383440070751,Street Address,FL,SUCCESSFUL ADDRESS,15,2010-09-23,643 days 00:00:00,2012-06-27
3721,3250 Lake City Highway,,Lake City,TN,37769,,"3250 Lake City Highway, Lake City, TN 37769",36.190084917658815,-84.14441358966396,Street Address,TN,SUCCESSFUL ADDRESS,15,2020-03-09,882 days 00:00:00,2022-08-08
4491,1571 Washington Ave,,Portland,ME,4103,,"1571 WASHINGTON AVE, PORTLAND, ME 4103",43.70511900026115,-70.2926750000263,Street Address,ME,SUCCESSFUL ADDRESS,15,2020-09-26,677 days 00:00:00,2022-08-04
2368,8201 State Rd,,Philadelphia,PA,19136,,"8201 STATE RD, PHILADELPHIA, PA 19136",40.03306383673607,-75.01532460156595,Street Address,PA,SUCCESSFUL ADDRESS,16,2004-05-13,622 days 00:00:00,2006-01-25
427,46 Dexter St,,Providence,RI,2909,,"46 DEXTER ST, PROVIDENCE, RI 2909",41.81524400012503,-71.43071900020293,Street Address,RI,SUCCESSFUL ADDRESS,16,2009-04-08,881 days 00:00:00,2011-09-06
13392,41100 Pinebench Road,,Yucaipa,CA,92399,,"41100 PINEBENCH ROAD, YUCAIPA, CA 92399",34.03332925559532,-116.90609379452758,Street Address,CA,SUCCESSFUL ADDRESS,16,2011-08-27,423 days 00:00:00,2012-10-23
18115,2 Vail Rd,,Bethel,CT,6801,,"2 VAIL RD, BETHEL, CT 6801",41.41754600003013,-73.39380799964707,Street Address,CT,SUCCESSFUL ADDRESS,16,2017-03-21,851 days 00:00:00,2019-07-20
8495,340 Carnation Avenue,,Mangilao,GU,96913,,"340 CARNATION AVENUE, MANGILAO, GU 96913",13.48615714605964,144.84314524886668,Street Address,GU,SUCCESSFUL ADDRESS,16,2019-11-16,606 days 00:00:00,2021-07-14
6793,1541 Medical Drive,,Tallahassee,FL,32308,,"1541 MEDICAL DRIVE, TALLAHASSEE, FL 32308",30.45905342365598,-84.25927294096789,Street Address,FL,SUCCESSFUL ADDRESS,17,2008-04-17,785 days 00:00:00,2010-06-11
18472,7801 E 32Nd Ave,,Anchorage,AK,99504,,"7801 E 32ND AVE, ANCHORAGE, AK 99504",61.1922773818946,-149.73551968230154,Street Address,AK,SUCCESSFUL ADDRESS,17,2020-11-27,569 days 00:00:00,2022-06-19
1068,99 Armstrong Ave,,Lisbon,NH,3585,,"99 ARMSTRONG AVE, LISBON, NH 3585",44.21185399995132,-71.91780699991982,Street Address,NH,SUCCESSFUL ADDRESS,18,2007-12-17,429 days 00:00:00,2009-02-18
14686,26 Pickerton Street,,Milan,GA,31060,,"26 PICKERTON STREET, MILAN, GA 31060",32.02039233971194,-83.05994790395981,Street Address,GA,SUCCESSFUL ADDRESS,18,2008-02-26,557 days 00:00:00,2009-09-05
15427,4724 West Vine Street,,Kissimmee,FL,34746,,"4724 WEST VINE STREET, KISSIMMEE, FL 34746",28.322816768070087,-81.47153760469782,Street Address,FL,SUCCESSFUL ADDRESS,18,2021-07-05,956 days 00:00:00,2024-02-16
4818,1959 South Val Vista Drive,,Mesa,AZ,85204,,"1959 SOUTH VAL VISTA DRIVE, MESA, AZ 85204",33.380047609170894,-111.751927451789,Street Address,AZ,SUCCESSFUL ADDRESS,19,2016-05-02,568 days 00:00:00,2017-11-21
2414,400 Faunce Corner Road,,North Dartmouth,MA,02747,,"400 FAUNCE CORNER ROAD, NORTH DARTMOUTH, MA 02747",41.66692812648312,-70.99522286271055,Street Address,MA,SUCCESSFUL ADDRESS,19,2016-12-24,954 days 00:00:00,2019-08-05
19460,12500 Wisteria Dr,,Germantown,MD,20874,,"12500 WISTERIA DR, GERMANTOWN, MD 20874",39.16770328070791,-77.26077027581668,Street Address,MD,SUCCESSFUL ADDRESS,19,2021-09-25,865 days 00:00:00,2024-02-07
585,2500 Alton Parkway,,Irvine,CA,92606,,"2500 ALTON PARKWAY, IRVINE, CA 92606",33.69144285582379,-117.83685623355926,Street Address,CA,SUCCESSFUL ADDRESS,19,2023-02-25,936 days 00:00:00,2025-09-18
1284,298 Osloski Road,,Eureka,MT,59917,,"298 OSLOSKI ROAD, EUREKA, MT 59917",48.89061092215995,-115.05963431943708,Street Address,MT,SUCCESSFUL ADDRESS,20,2000-07-28,817 days 00:00:00,2002-10-23
13305,401 Elmgrove Ave,,Providence,RI,2906,,"401 ELMGROVE AVE, PROVIDENCE, RI 2906",41.84140300021457,-71.39254100037813,Street Address,RI,SUCCESSFUL ADDRESS,20,2000-07-30,442 days 00:00:00,2001-10-15
3452,30 Strafford Rd,,Center Strafford,NH,3884,,"30 STRAFFORD RD, CENTER STRAFFORD, NH 3884",43.26912299998386,-71.11927699976846,Street Address,NH,SUCCESSFUL ADDRESS,20,2003-03-26,531 days 00:00:00,2004-09-07
12599,120 North 19Th Avenue,,Bozeman,MT,59718,,"120 NORTH 19TH AVENUE, BOZEMAN, MT 59718",45.67989457723086,-111.06203110612012,Street Address,MT,SUCCESSFUL ADDRESS,20,2006-04-18,693 days 00:00:00,2008-03-11
18429,104 South Main Street,,Drayton,North Dakota,58225,,"104 South Main Street, Drayton, North Dakota 58225",48.5613990000001,-97.1777229999999,Street Address,ND,SUCCESSFUL ADDRESS,21,2006-08-18,743 days 00:00:00,2008-08-30
623,6085 7Th St Ne,,Fridley,MN,55432,,"6085 7TH ST NE, FRIDLEY, MN 55432",45.07818080929724,-93.25689798005511,Street Address,MN,SUCCESSFUL ADDRESS,22,2005-11-03,911 days 00:00:00,2008-05-02
3696,92 885 Makakilo Drive,,Kapolei,HI,96707,,"92 - 885 Makakilo Drive, Kapolei, HI 96707",21.354525797785023,-158.08658580446323,Street Address,HI,SUCCESSFUL ADDRESS,23,2004-10-29,523 days 00:00:00,2006-04-05
6825,2600 Glasgow Avenue,,Newark,DE,19702,,"2600 GLASGOW AVENUE, NEWARK, DE 19702",39.59927929042592,-75.74447065930605,Street Address,DE,SUCCESSFUL ADDRESS,24,2004-11-07,692 days 00:00:00,2006-09-30
14625,453 Leroy St,,Buffalo,NY,14215,,"453 LEROY ST, BUFFALO, NY 14215",42.93255441776313,-78.82877288395068,Street Address,NY,SUCCESSFUL ADDRESS,24,2010-01-17,858 days 00:00:00,2012-05-24
12858,785 United States Highway 321,,Lenoir City,TN,37771,,"785 UNITED STATES HIGHWAY 321, LENOIR CITY, TN 37771",35.81527463046385,-84.26387846149575,Street Address,TN,SUCCESSFUL ADDRESS,24,2011-10-29,879 days 00:00:00,2014-03-26
16428,265 Griffin Street West,,Amery,WI,54001,,"265 GRIFFIN STREET WEST, AMERY, WI 54001",45.29543159794347,-92.36863233946188,Street Address,WI,SUCCESSFUL ADDRESS,26,2000-05-02,872 days 00:00:00,2002-09-21
4941,2119 Hartford Ave,,Johnston,RI,2919,,"2119 HARTFORD AVE, JOHNSTON, RI 2919",41.83034700017512,-71.53058600031923,Street Address,RI,SUCCESSFUL ADDRESS,26,2011-10-24,490 days 00:00:00,2013-02-25
13679,2610 14Th Street,,Columbus,NE,68601,,"2610 14TH STREET, COLUMBUS, NE 68601",41.43064107036443,-97.3600672209428,Street Address,NE,SUCCESSFUL ADDRESS,26,2015-04-18,571 days 00:00:00,2016-11-09
47,45 Sprague Avenue,,Cranston,RI,02910,,"45 SPRAGUE AVENUE, CRANSTON, RI 02910",41.78607476594456,-71.43731478675176,Street Address,RI,SUCCESSFUL ADDRESS,27,2016-08-12,964 days 00:00:00,2019-04-03
13832,1182 Chenango Street,,Binghamton,NY,13901,,"1182 CHENANGO STREET, BINGHAMTON, NY 13901",42.1516700121205,-75.88328008284678,Street Address,NY,SUCCESSFUL ADDRESS,28,2000-01-10,700 days 00:00:00,2001-12-10
18498,5501 North La Palma Road,,Eloy,AZ,85131,,"5501 NORTH LA PALMA ROAD, ELOY, AZ 85131",32.813512945113466,-111.52690900916534,Street Address,AZ,SUCCESSFUL ADDRESS,28,2017-02-18,736 days 00:00:00,2019-02-24
46,1570 Shepardsville Highway,,Granville,TN,38564,,"1570 Shepardsville Highway, Granville, TN 38564",36.25432304674038,-85.71053049837096,Street Address,TN,SUCCESSFUL ADDRESS,29,2001-11-15,703 days 00:00:00,2003-10-19
18907,10255 Lambert Road,,Peyton,CO,80831,,"10255 LAMBERT ROAD, PEYTON, CO 80831",38.98008583282629,-104.57600281534366,Street Address,CO,SUCCESSFUL ADDRESS,29,2017-09-30,897 days 00:00:00,2020-03-15
1088,4750 West 52Nd Street,,Indianapolis,IN,46254,,"4750 West 52nd Street, Indianapolis, IN 46254",39.84663529951261,-86.24113050003363,Street Address,IN,SUCCESSFUL ADDRESS,29,2021-09-28,715 days 00:00:00,2023-09-13
3807,6 Front Street,,Frederica,DE,19946,,"6 Front Street, Frederica, DE 19946",39.00893176469383,-75.46517130949373,Street Address,DE,SUCCESSFUL ADDRESS,30,2000-08-29,419 days 00:00:00,2001-10-22
6683,20 South Main Street,,Chambersburg,Pennsylvania,17201,,"20 South Main Street, Chambersburg, Pennsylvania 17201",39.932507,-77.9988329999999,Street Address,PA,SUCCESSFUL ADDRESS,30,2004-07-24,669 days 00:00:00,2006-05-24
13076,1090 Ossipee Lake Rd,,West Ossipee,NH,3890,,"1090 OSSIPEE LAKE RD, WEST OSSIPEE, NH 3890",43.830367000139255,-71.19429299957669,Street Address,NH,SUCCESSFUL ADDRESS,30,2023-10-04,389 days 00:00:00,2024-10-27
7397,945 W Main St,,Mount Vernon,KY,40456,,"945 W MAIN ST, MOUNT VERNON, KY 40456",37.35697602990143,-84.35734780658396,Street Address,KY,SUCCESSFUL ADDRESS,31,2005-11-07,510 days 00:00:00,2007-04-01
11090,105 North 31St Avenue,,Omaha,NE,68131,,"105 NORTH 31ST AVENUE, OMAHA, NE 68131",41.26004779442052,-95.9587540239221,Street Address,NE,SUCCESSFUL ADDRESS,31,2010-05-11,851 days 00:00:00,2012-09-08
647,1506 Market Street,Suite C180,Little Rock,Arkansas,72211,,"1506 Market Street, Suite C180, Little Rock, Arkansas 72211",34.7670170000001,-92.3984359999999,Street Address,AR,SUCCESSFUL ADDRESS,31,2011-11-02,390 days 00:00:00,2012-11-26
3147,2000 West Main Street,,Saint Charles,IL,60174,,"2000 WEST MAIN STREET, SAINT CHARLES, IL 60174",41.91308237396564,-88.3383579759799,Street Address,IL,SUCCESSFUL ADDRESS,31,2016-03-08,530 days 00:00:00,2017-08-20
2734,2480 Windy Hill Road Southeast,,Marietta,GA,30067,,"2480 WINDY HILL ROAD SOUTHEAST, MARIETTA, GA 30067",33.901928035223875,-84.48073673696909,Street Address,GA,SUCCESSFUL ADDRESS,31,2019-08-07,460 days 00:00:00,2020-11-09
7413,127 North Main Street,,Marion,Ohio,43302,,"127 North Main Street, Marion, Ohio 43302",40.5893100000001,-83.1289579999999,Street Address,OH,SUCCESSFUL ADDRESS,31,2021-02-23,413 days 00:00:00,2022-04-12
561,159 Winchester Street,,Sardinia,OH,45171,,"159 Winchester Street, Sardinia, OH 45171",39.00736982805924,-83.80326709295096,Street Address,OH,SUCCESSFUL ADDRESS,32,2013-06-05,491 days 00:00:00,2014-10-09
13435,19901 Lawson Rd,,Little Rock,AR,72210,,"19901 LAWSON RD, LITTLE ROCK, AR 72210",34.7162701143602,-92.49378889201812,Street Address,AR,SUCCESSFUL ADDRESS,32,2022-02-06,665 days 00:00:00,2023-12-03
4648,4056 Siloam Road,,Dobson,NC,27017,,"4056 Siloam Road, Dobson, NC 27017",36.34553197880475,-80.62869922094848,Street Address,NC,SUCCESSFUL ADDRESS,33,2005-09-13,671 days 00:00:00,2007-07-16
10704,401 Main Street,,Edgeley,North Dakota,58433,,"401 Main Street, Edgeley, North Dakota 58433",46.3026980000001,-98.948912,Street Address,ND,SUCCESSFUL ADDRESS,33,2017-10-04,748 days 00:00:00,2019-10-22
11135,95 Main Street,,Atwood,KS,67730,,"95 Main Street, Atwood, KS 67730",39.8072361964266,-101.0464341746673,Street Address,KS,SUCCESSFUL ADDRESS,33,2023-11-15,546 days 00:00:00,2025-05-14
3881,551 Kokopelli Boulevard,,Fruita,CO,81521,,"551 KOKOPELLI BOULEVARD, FRUITA, CO 81521",39.150869263247806,-108.73567193079006,Street Address,CO,SUCCESSFUL ADDRESS,34,2001-03-19,778 days 00:00:00,2003-05-06
17454,1900 Beech Ave Se,,Cullman,AL,35055,,"1900 BEECH AVE SE, CULLMAN, AL 35055",34.15049880258273,-86.82971695192414,Street Address,AL,SUCCESSFUL ADDRESS,34,2019-02-12,484 days 00:00:00,2020-06-10
16167,219 N 1St St,,Medford,OK,73759,,"219 N 1ST ST, MEDFORD, OK 73759",36.80874404749144,-97.73397704003784,Street Address,OK,SUCCESSFUL ADDRESS,34,2023-12-23,547 days 00:00:00,2025-06-22
6625,308 South Main Street,,Aberdeen,South Dakota,57401,,"308 South Main Street, Aberdeen, South Dakota 57401",45.5360870000001,-100.433819,Street Address,SD,SUCCESSFUL ADDRESS,35,2008-07-06,450 days 00:00:00,2009-09-29
5635,99 Grandview Ave,,Bridgeport,CT,6606,,"99 GRANDVIEW AVE, BRIDGEPORT, CT 6606",41.22002400031128,-73.1892349995577,Street Address,CT,SUCCESSFUL ADDRESS,35,2010-03-21,991 days 00:00:00,2012-12-06
3471,401 North 31St Street,,Billings,Montana,59101,,"401 North 31st Street, Billings, Montana 59101",46.8699920000001,-113.994939,Street Address,MT,SUCCESSFUL ADDRESS,36,2006-09-03,698 days 00:00:00,2008-08-01
5999,20 Mcgee St,,Greenville,SC,29601,,"20 MCGEE ST, GREENVILLE, SC 29601",34.85379345225652,-82.38669420454163,Street Address,SC,SUCCESSFUL ADDRESS,36,2013-05-27,447 days 00:00:00,2014-08-17
19625,20 4Th Avenue Southwest,,Conrad,MT,59425,,"20 4TH AVENUE SOUTHWEST, CONRAD, MT 59425",48.16887602159636,-111.94818373470018,Street Address,MT,SUCCESSFUL ADDRESS,36,2016-07-13,447 days 00:00:00,2017-10-03
11358,3420 Wilkesboro Boulevard,,Lenoir,NC,28645,,"3420 Wilkesboro Boulevard, Lenoir, NC 28645",35.98259481250495,-81.41345542291701,Street Address,NC,SUCCESSFUL ADDRESS,37,2011-06-22,970 days 00:00:00,2014-02-16
12282,38322 Us Hwy 180,,St. Johns,AZ,85936,,"38322 US HWY 180, ST. JOHNS, AZ 85936",34.320830537391046,-109.3907224181177,Street Address,AZ,SUCCESSFUL ADDRESS,37,2021-03-19,610 days 00:00:00,2022-11-19
18591,11540 Ne Inverness Dr,,Portland,OR,97220,,"11540 NE INVERNESS DR, PORTLAND, OR 97220",45.56344306713452,-122.54405071979156,Street Address,OR,SUCCESSFUL ADDRESS,38,2021-03-04,508 days 00:00:00,2022-07-25
8682,4880 South Wynn Road,,Las Vegas,NV,89103,,"4880 SOUTH WYNN ROAD, LAS VEGAS, NV 89103",36.10134814782754,-115.19497338982484,Street Address,NV,SUCCESSFUL ADDRESS,39,2015-09-27,464 days 00:00:00,2017-01-03
15186,3515 Washington Road,,Mcmurray,PA,15317,,"3515 WASHINGTON ROAD, MCMURRAY, PA 15317",40.28338441171959,-80.12073188120374,Street Address,PA,SUCCESSFUL ADDRESS,39,2016-09-28,754 days 00:00:00,2018-10-22
1382,29750 Ecorse Road,,Romulus,MI,48174,,"29750 ECORSE ROAD, ROMULUS, MI 48174",42.253641447556014,-83.33281313536634,Street Address,MI,SUCCESSFUL ADDRESS,39,2018-08-24,930 days 00:00:00,2021-03-11
13577,501 South Adams St,,Marion,IN,46952,,"501 SOUTH ADAMS ST, MARION, IN 46952",40.55645210350156,-85.6580321622617,Street Address,IN,SUCCESSFUL ADDRESS,40,2003-09-21,913 days 00:00:00,2006-03-22
12626,62741 County Road 551,,Togo,MN,55723,,"62741 COUNTY ROAD 551, TOGO, MN 55723",47.78463879963643,-93.23946361735308,Street Address,MN,SUCCESSFUL ADDRESS,40,2021-05-24,793 days 00:00:00,2023-07-26
18197,445 South Main St,,Lusk,Wyoming,82225,,"445 South Main St, Lusk, Wyoming 82225",42.7607840000001,-104.452038,Street Address,WY,SUCCESSFUL ADDRESS,41,2010-03-01,780 days 00:00:00,2012-04-19
19369,6179 Annas Hope,,Christiansted,VI,00820,,"6179 ANNAS HOPE, CHRISTIANSTED, VI 00820",17.727765695867483,-64.7242999369858,Street Address,VI,SUCCESSFUL ADDRESS,41,2018-04-26,749 days 00:00:00,2020-05-14
10738,22505 26 Mile Rd,,Ray,MI,48096,,"22505 26 MILE RD, RAY, MI 48096",42.719841305742726,-82.88866570756488,Street Address,MI,SUCCESSFUL ADDRESS,41,2022-04-21,760 days 00:00:00,2024-05-20
3505,124 Stacey Road,,Volborg,MT,59351,,"124 STACEY ROAD, VOLBORG, MT 59351",45.69877313687858,-105.88891006508496,Street Address,MT,SUCCESSFUL ADDRESS,42,2004-02-13,842 days 00:00:00,2006-06-04
4741,565 Pontiac Ave,,Cranston,RI,2910,,"565 PONTIAC AVE, CRANSTON, RI 2910",41.77138699971423,-71.4370619999325,Street Address,RI,SUCCESSFUL ADDRESS,42,2010-07-18,986 days 00:00:00,2013-03-30
7841,34 Upper Riverdale Road,,Riverdale,GA,30274,,"34 UPPER RIVERDALE ROAD, RIVERDALE, GA 30274",33.57786572112634,-84.38762703599815,Street Address,GA,SUCCESSFUL ADDRESS,42,2017-03-01,530 days 00:00:00,2018-08-13
10755,4629 Hicone Rd,,Greensboro,NC,27405,,"4629 HICONE RD, Greensboro, NC 27405",36.153093219615606,-79.71318155397262,Street Address,NC,SUCCESSFUL ADDRESS,42,2023-07-26,527 days 00:00:00,2025-01-03
11799,500 19Th Street Ne,,Washington,DC,20002,,"500 19TH STREET NE, WASHINGTON, DC 20002",38.89667547226335,-76.97744680141659,Street Address,DC,SUCCESSFUL ADDRESS,43,2006-04-19,886 days 00:00:00,2008-09-21
11935,180 Pine Bayou Circle,,Richwood,LA,71202,,"180 PINE BAYOU CIRCLE, RICHWOOD, LA 71202",32.4566796321756,-92.078809923442,Street Address,LA,SUCCESSFUL ADDRESS,43,2007-09-26,437 days 00:00:00,2008-12-06
8704,38911 Van Dyke Avenue,,Sterling Heights,MI,48312,,"38911 Van Dyke Avenue, Sterling Heights, MI 48312",42.57988333862803,-83.03119881014138,Street Address,MI,SUCCESSFUL ADDRESS,43,2019-08-05,419 days 00:00:00,2020-09-27
4496,155 Saco Avenue,,Old Orchard Beach,ME,04064,,"155 SACO AVENUE, OLD ORCHARD BEACH, ME 04064",43.5123753180876,-70.39109577901053,Street Address,ME,SUCCESSFUL ADDRESS,45,2000-04-22,820 days 00:00:00,2002-07-21
3913,66 South Washington Street,,North Attleboro,MA,02760,,"66 SOUTH WASHINGTON STREET, NORTH ATTLEBORO, MA 02760",41.979975661175565,-71.33296956995977,Street Address,MA,SUCCESSFUL ADDRESS,45,2002-07-16,924 days 00:00:00,2005-01-25
9172,10050 West 41St Avenue,,Wheat Ridge,CO,80033,,"10050 WEST 41ST AVENUE, WHEAT RIDGE, CO 80033",39.77307503575993,-105.11003796746628,Street Address,CO,SUCCESSFUL ADDRESS,45,2002-11-28,562 days 00:00:00,2004-06-12
15328,125 Shaw Street,,Howard City,MI,49329,,"125 Shaw Street, Howard City, MI 49329",43.39601778649395,-85.46880548590238,Street Address,MI,SUCCESSFUL ADDRESS,45,2009-10-11,843 days 00:00:00,2012-02-01
4779,1 Palm St,,E Millinocket,ME,4430,,"1 PALM ST, E MILLINOCKET, ME 4430",45.628935999686334,-68.56472400034725,Street Address,ME,SUCCESSFUL ADDRESS,45,2012-10-14,416 days 00:00:00,2013-12-04
6913,324 East Main Street,,Newark,DE,19711,,"324 EAST MAIN STREET, NEWARK, DE 19711",39.68440908428705,-75.739930015108,Street Address,DE,SUCCESSFUL ADDRESS,46,2004-10-17,367 days 00:00:00,2005-10-19
7147,7777 S May Ave,OCCC,Oklahoma City,OK,73159,,"OCCC 7777 S MAY AVE, OKLAHOMA CITY, OK 73159",35.38771382982384,-97.57015211172974,Street Address,OK,SUCCESSFUL ADDRESS,46,2011-05-07,386 days 00:00:00,2012-05-27
16833,1 Church St,,Wakefield,MA,1880,,"1 CHURCH ST, WAKEFIELD, MA 1880",42.50705899990006,-71.07326599968663,Street Address,MA,SUCCESSFUL ADDRESS,46,2011-08-26,694 days 00:00:00,2013-07-20
16124,3613 Chitimacha Trail,,Jeanerette,LA,70544,,"3613 CHITIMACHA TRAIL, JEANERETTE, LA 70544",29.885020449362163,-91.53164637199076,Street Address,LA,SUCCESSFUL ADDRESS,47,2010-10-20,965 days 00:00:00,2013-06-11
5616,1 Longhorn Dr,,Agua Dulce,TX,78330,,"1 LONGHORN DR, AGUA DULCE, TX 78330",27.78552676461122,-97.91328986171222,Street Address,TX,SUCCESSFUL ADDRESS,47,2018-10-09,703 days 00:00:00,2020-09-11
9845,10555 Stead Boulevard,,Reno,NV,89506,,"10555 STEAD BOULEVARD, RENO, NV 89506",39.62358731228985,-119.88264075500408,Street Address,NV,SUCCESSFUL ADDRESS,49,2010-10-17,941 days 00:00:00,2013-05-15
9141,126 East Main Street,,Deshler,OH,43516,,"126 East Main Street, Deshler, OH 43516",41.20645982363288,-83.90057960689442,Street Address,OH,SUCCESSFUL ADDRESS,49,2012-12-30,718 days 00:00:00,2014-12-18
12269,15505 South Pleasant Valley Road,,Kuna,ID,83634,,"15505 SOUTH PLEASANT VALLEY ROAD, KUNA, ID 83634",43.46183741001902,-116.2357734666954,Street Address,ID,SUCCESSFUL ADDRESS,49,2016-03-18,949 days 00:00:00,2018-10-23
12126,1001 Clay Ave,,Tyrone,PA,16686,,"1001 CLAY AVE, TYRONE, PA 16686",40.67358450522841,-78.24963848942022,Street Address,PA,SUCCESSFUL ADDRESS,50,2004-04-04,820 days 00:00:00,2006-07-03
10984,19937 430Th Street,,Clarissa,MN,56440,,"19937 430TH STREET, CLARISSA, MN 56440",46.25207416324824,-94.95029123920273,Street Address,MN,SUCCESSFUL ADDRESS,50,2023-07-23,391 days 00:00:00,2024-08-17
978,1 Bulldog Ave,,Baltic,SD,57003,,"1 BULLDOG AVE, BALTIC, SD 57003",43.75897593627088,-96.73358603478871,Street Address,SD,SUCCESSFUL ADDRESS,51,2001-10-05,958 days 00:00:00,2004-05-20
16491,8211 West 3500 South,,Magna,UT,84044,,"8211 WEST 3500 SOUTH, MAGNA, UT 84044",40.69611535951488,-112.08750381881865,Street Address,UT,SUCCESSFUL ADDRESS,51,2004-07-21,557 days 00:00:00,2006-01-29
3164,4110 Stanton Ogletown Road,,Newark,DE,19713,,"4110 STANTON OGLETOWN ROAD, NEWARK, DE 19713",39.68564709160008,-75.68428993576643,Street Address,DE,SUCCESSFUL ADDRESS,51,2005-06-28,905 days 00:00:00,2007-12-20
2832,44 Hallowell Rd,,Chelsea,ME,4330,,"44 HALLOWELL RD, CHELSEA, ME 4330",44.28480600005084,-69.7728280002995,Street Address,ME,SUCCESSFUL ADDRESS,51,2007-07-15,895 days 00:00:00,2009-12-26
6504,111 Pattit Rd,,Dayton,WA,99328,,"111 Pattit Rd, Dayton, WA 99328",46.326392898480535,-117.96949935826972,Street Address,WA,SUCCESSFUL ADDRESS,51,2014-08-29,707 days 00:00:00,2016-08-05
19173,42 Cross Rd,,Stamford,CT,6905,,"42 CROSS RD, STAMFORD, CT 6905",41.07702299966564,-73.5517789998258,Street Address,CT,SUCCESSFUL ADDRESS,51,2015-10-22,993 days 00:00:00,2018-07-11
4956,1080 Labaron Dr,,Miami Springs,FL,33166,,"1080 LABARON DR, MIAMI SPRINGS, FL 33166",25.81254784903645,-80.27440814470523,Street Address,FL,SUCCESSFUL ADDRESS,52,2003-11-28,817 days 00:00:00,2006-02-22
3084,1565 Fe Sellers Highway,,Monticello,MS,39654,,"1565 FE SELLERS HIGHWAY, MONTICELLO, MS 39654",31.53626887994056,-90.1073708981877,Street Address,MS,SUCCESSFUL ADDRESS,52,2013-01-16,525 days 00:00:00,2014-06-25
10416,1 Hatfield Lane,,Goshen,NY,10924,,"1 HATFIELD LANE, GOSHEN, NY 10924",41.39247599743539,-74.3370946321291,Street Address,NY,SUCCESSFUL ADDRESS,53,2004-01-23,973 days 00:00:00,2006-09-22
2863,2555 South Kirkman Road,,Orlando,FL,32811,,"2555 SOUTH KIRKMAN ROAD, ORLANDO, FL 32811",28.515398537244582,-81.45821222304696,Street Address,FL,SUCCESSFUL ADDRESS,54,2012-05-28,513 days 00:00:00,2013-10-23
10701,1555 Liberty Lane,,Missoula,MT,59808,,"1555 LIBERTY LANE, MISSOULA, MT 59808",46.87782796578175,-114.02021847792128,Street Address,MT,SUCCESSFUL ADDRESS,55,2003-04-14,544 days 00:00:00,2004-10-09
16812,600 E Fairview Ave,,Homer,AK,99603,,"600 E FAIRVIEW AVE, HOMER, AK 99603",59.651912728849446,-151.52812959434812,Street Address,AK,SUCCESSFUL ADDRESS,55,2013-01-05,454 days 00:00:00,2014-04-04
272,117 South Mulberry Ave,,Butler,AL,36904,,"117 SOUTH MULBERRY AVE, BUTLER, AL 36904",32.088557876420666,-88.22280885722755,Street Address,AL,SUCCESSFUL ADDRESS,55,2013-06-09,835 days 00:00:00,2015-09-22
88,1745 Baltimore Boulevard,,Westminster,MD,21157,,"1745 Baltimore Boulevard, Westminster, MD 21157",39.54345899979169,-76.93477890052921,Street Address,MD,SUCCESSFUL ADDRESS,56,2001-02-18,881 days 00:00:00,2003-07-19
15024,2008 3Rd Street,,La Grande,OR,97850,,"2008 3RD STREET, LA GRANDE, OR 97850",45.33027047571064,-118.09825510443656,Street Address,OR,SUCCESSFUL ADDRESS,56,2009-04-17,661 days 00:00:00,2011-02-07
15688,2630 N Pacific Hwy,,Woodburn,OR,97071,,"2630 N PACIFIC HWY, WOODBURN, OR 97071",45.15568221532863,-122.81965895171376,Street Address,OR,SUCCESSFUL ADDRESS,57,2004-02-25,923 days 00:00:00,2006-09-05
361,515 Dayton Street,,Ranchester,Wyoming,82839,,"515 Dayton Street, Ranchester, Wyoming 82839",44.908847,-107.166122,Street Address,WY,SUCCESSFUL ADDRESS,57,2006-12-13,409 days 00:00:00,2008-01-26
8165,524 W 184Th St,STE 4-A,New York,NY,10033,,"524 W 184TH ST STE 4-A, NEW YORK, NY 10033",40.85039499996085,-73.93083300015678,Street Address,NY,SUCCESSFUL ADDRESS,58,2002-09-17,971 days 00:00:00,2005-05-15
3045,1404 Jackson Street Ne,,Washington,DC,20017,,"1404 JACKSON STREET NE, WASHINGTON, DC 20017",38.92955465925118,-76.98692467265442,Street Address,DC,SUCCESSFUL ADDRESS,58,2008-11-24,552 days 00:00:00,2010-05-30
9394,1300 Ludlow Rd,,Ludlow,SD,57755,,"1300 LUDLOW RD, LUDLOW, SD 57755",45.835160816935904,-103.37596476137809,Street Address,SD,SUCCESSFUL ADDRESS,58,2009-10-19,774 days 00:00:00,2011-12-02
19108,533 Fellowship Road,Suite 250,Mount Laurel,New Jersey,08054,,"533 Fellowship Road, Suite 250, Mount Laurel, New Jersey 08054",39.6513660000001,-75.3279379999999,Street Address,NJ,SUCCESSFUL ADDRESS,58,2017-02-18,870 days 00:00:00,2019-07-08
14913,161 Hwy 25,,Conway,AR,72032,,"161 HWY 25, Conway, AR 72032",35.140089280462725,-92.4572378426825,Street Address,AR,SUCCESSFUL ADDRESS,58,2018-10-24,568 days 00:00:00,2020-05-14
9721,9655 Colorado Lane North,,Brooklyn Park,MN,55445,,"9655 COLORADO LANE NORTH, BROOKLYN PARK, MN 55445",45.131405128579466,-93.36059420358023,Street Address,MN,SUCCESSFUL ADDRESS,59,2000-07-15,926 days 00:00:00,2003-01-27
3798,309 Cleveland St,,Sundance,WY,82729,,"309 CLEVELAND ST, SUNDANCE, WY 82729",44.40539130423274,-104.378539678384,Street Address,WY,SUCCESSFUL ADDRESS,59,2005-08-20,398 days 00:00:00,2006-09-22
9753,1044 East Hazelwood Avenue,,Rahway,NJ,07065,,"1044 EAST HAZELWOOD AVENUE, RAHWAY, NJ 07065",40.60046795367944,-74.2590136838777,Street Address,NJ,SUCCESSFUL ADDRESS,59,2011-03-27,844 days 00:00:00,2013-07-18
857,363 Festus Centre Drive,,Festus,Missouri,63028,,"363 Festus Centre Drive, Festus, Missouri 63028",38.2127180000001,-90.3938579999999,Street Address,MO,SUCCESSFUL ADDRESS,59,2015-09-12,393 days 00:00:00,2016-10-09
6288,2519 Martin Luther King Dr,,San Antonio,TX,78203,,"2519 MARTIN LUTHER KING DR, SAN ANTONIO, TX 78203",29.41494386599721,-98.44437061925709,Street Address,TX,SUCCESSFUL ADDRESS,59,2019-11-26,937 days 00:00:00,2022-06-20
3635,4 Watson St,,Nashua,NH,3064,,"4 WATSON ST, NASHUA, NH 3064",42.77572700012367,-71.48760999974728,Street Address,NH,SUCCESSFUL ADDRESS,60,2005-07-03,998 days 00:00:00,2008-03-27
16935,411 East 11Th Street,,Schuyler,NE,68661,,"411 EAST 11TH STREET, SCHUYLER, NE 68661",41.44700269946032,-97.05535786662412,Street Address,NE,SUCCESSFUL ADDRESS,60,2006-05-13,832 days 00:00:00,2008-08-22
17591,4624 South Holladay Boulevard,,Salt Lake City,UT,84117,,"4624 SOUTH HOLLADAY BOULEVARD, SALT LAKE CITY, UT 84117",40.66999785238356,-111.82650275339016,Street Address,UT,SUCCESSFUL ADDRESS,60,2015-02-24,627 days 00:00:00,2016-11-12
7207,1065 Thornfield Rd,,Kaysville,UT,84037,,"1065 THORNFIELD RD, KAYSVILLE, UT 84037",41.05172995471772,-111.9197206429624,Street Address,UT,SUCCESSFUL ADDRESS,61,2010-05-19,980 days 00:00:00,2013-01-23
8789,100 N Peters Ave,,Fond Du Lac,WI,54935,,"100 N PETERS AVE, FOND DU LAC, WI 54935",43.781290201895125,-88.47270115697569,Street Address,WI,SUCCESSFUL ADDRESS,61,2019-02-20,620 days 00:00:00,2020-11-01
12781,5802 Us Hwy 160,,Theodosia,MO,65761,,"5802 US HWY 160, THEODOSIA, MO 65761",36.58200138971317,-92.67255398210422,Street Address,MO,SUCCESSFUL ADDRESS,61,2021-11-16,777 days 00:00:00,2024-01-02
9524,1954 State Farm Rd,,State Farm,VA,23160,,"1954 STATE FARM RD, STATE FARM, VA 23160",37.6446731869055,-77.82711992670362,Street Address,VA,SUCCESSFUL ADDRESS,62,2001-11-17,744 days 00:00:00,2003-12-01
12956,1216 New York Avenue,,Knoxville,TN,37921,,"1216 New York Avenue, Knoxville, TN 37921",35.983216555204606,-83.95263579632456,Street Address,TN,SUCCESSFUL ADDRESS,62,2005-10-24,726 days 00:00:00,2007-10-20
10583,1519 32Nd Street South,,Brookings,SD,57006,,"1519 32nd Street South, Brookings, SD 57006",44.26873779378556,-96.77910613970376,Street Address,SD,SUCCESSFUL ADDRESS,63,2010-01-15,455 days 00:00:00,2011-04-15
3676,1525 18Th Street,,Spirit Lake,Iowa,51360,,"1525 18th Street, Spirit Lake, Iowa 51360",43.4225840000001,-95.1130139999999,Street Address,IA,SUCCESSFUL ADDRESS,63,2010-09-08,741 days 00:00:00,2012-09-18
1149,1931 Eagan Avenue,,Fairbanks,AK,99701,,"1931 EAGAN AVENUE, FAIRBANKS, AK 99701",64.83306443084162,-147.7585756754014,Street Address,AK,SUCCESSFUL ADDRESS,63,2010-12-09,782 days 00:00:00,2013-01-29
1410,1351 Nicholson St Nw,,Washington,DC,20011,,"1351 NICHOLSON ST NW, WASHINGTON, DC 20011",38.96043164206292,-77.03156608238947,Street Address,DC,SUCCESSFUL ADDRESS,63,2014-06-23,979 days 00:00:00,2017-02-26
11336,122 Legend Rd,,Lumberton,NC,28358,,"122 LEGEND RD, LUMBERTON, NC 28358",34.58522070151334,-79.05218995040269,Street Address,NC,SUCCESSFUL ADDRESS,63,2023-08-20,687 days 00:00:00,2025-07-07
2782,7555 Enchanted Hills Boulevard,,Rio Rancho,NM,87144,,"7555 ENCHANTED HILLS BOULEVARD, RIO RANCHO, NM 87144",35.32800040044639,-106.58048999463178,Street Address,NM,SUCCESSFUL ADDRESS,64,2005-12-30,399 days 00:00:00,2007-02-02
13283,3301 Willoughby Beach Road,,Edgewood,MD,21040-3502,,"3301 Willoughby Beach Road, Edgewood, MD 21040-3502",39.43264852154866,-76.27076778824998,Street Address,MD,SUCCESSFUL ADDRESS,64,2007-12-01,840 days 00:00:00,2010-03-20
18955,1195 S Elk Ridge Drive,,Salem,UT,84653,,"1195 S ELK RIDGE DRIVE, SALEM, UT 84653",40.03647459796864,-111.6913652541724,Street Address,UT,SUCCESSFUL ADDRESS,64,2021-03-13,384 days 00:00:00,2022-04-01
5800,2320 Avenue J,,Omaha,NE,68110,,"2320 AVENUE J, OMAHA, NE 68110",41.28355311350038,-95.90045669808532,Street Address,NE,SUCCESSFUL ADDRESS,64,2023-02-27,713 days 00:00:00,2025-02-09
8705,21 Barrio Monacillos,,San Juan,PR,00929,,"CARRETERA 21 BARRIO MONACILLOS, SAN JUAN, PR 00929",18.38847350106252,-66.07076620744962,Street Address,PR,SUCCESSFUL ADDRESS,65,2011-01-06,624 days 00:00:00,2012-09-21
8138,2100 Canyon Parkway,,Sparks,NV,89436,,"2100 CANYON PARKWAY, SPARKS, NV 89436",39.58064895291477,-119.7069526552775,Street Address,NV,SUCCESSFUL ADDRESS,65,2022-05-09,926 days 00:00:00,2024-11-20
12214,26405 Hwy 107,,Jacksonville,AR,72076,,"26405 HWY 107, JACKSONVILLE, AR 72076",34.95094984898649,-92.1574236810998,Street Address,AR,SUCCESSFUL ADDRESS,66,2014-05-18,856 days 00:00:00,2016-09-20
14561,60 S Pioneer St,,Lowell,OR,97452,,"60 S PIONEER ST, LOWELL, OR 97452",43.91725905005091,-122.7810048896296,Street Address,OR,SUCCESSFUL ADDRESS,67,2005-04-17,431 days 00:00:00,2006-06-22
17399,2 Elementary Drive,,Treynor,IA,51575,,"2 ELEMENTARY DRIVE, TREYNOR, IA 51575",41.23110809181626,-95.60307194419065,Street Address,IA,SUCCESSFUL ADDRESS,67,2005-07-02,947 days 00:00:00,2008-02-04
13698,3601 Country Club Blvd,,Sioux City,IA,51104,,"3601 COUNTRY CLUB BLVD, SIOUX CITY, IA 51104",42.53209024798365,-96.41289853572088,Street Address,IA,SUCCESSFUL ADDRESS,68,2000-01-01,830 days 00:00:00,2002-04-10
3285,103 West Main Street,,Parkston,South Dakota,57366,,"103 West Main Street, Parkston, South Dakota 57366",43.724836,-97.8232009999999,Street Address,SD,SUCCESSFUL ADDRESS,68,2004-09-13,757 days 00:00:00,2006-10-10
12442,21 Readfield Rd,,Manchester,ME,4351,,"21 READFIELD RD, MANCHESTER, ME 4351",44.325840999711424,-69.86235800020317,Street Address,ME,SUCCESSFUL ADDRESS,69,2017-10-26,420 days 00:00:00,2018-12-20
18442,200A Pioneer Road,,Red River,NM,87558,,"200A PIONEER ROAD, RED RIVER, NM 87558",36.70901668253643,-105.40998252849565,Street Address,NM,SUCCESSFUL ADDRESS,70,2010-03-03,630 days 00:00:00,2011-11-23
19950,100 Hulton Rd,,Oakmont,PA,15139,,"100 HULTON RD, OAKMONT, PA 15139",40.525604524818654,-79.84410319129007,Street Address,PA,SUCCESSFUL ADDRESS,71,2010-05-11,652 days 00:00:00,2012-02-22
16272,1 Highlander Way,,Huntington,WV,25701,,"1 HIGHLANDER WAY, HUNTINGTON, WV 25701",38.3935465628451,-82.39857847565943,Street Address,WV,SUCCESSFUL ADDRESS,71,2018-07-11,399 days 00:00:00,2019-08-14
5995,32363 State Highway 79,,Warner Springs,CA,92086,,"32363 STATE HIGHWAY 79, WARNER SPRINGS, CA 92086",33.32449679278016,-116.6832104840042,Street Address,CA,SUCCESSFUL ADDRESS,72,2002-07-18,720 days 00:00:00,2004-07-07
3786,900 South Progress Boulevard,,Tuscola,Illinois,61953,,"900 South Progress Boulevard, Tuscola, Illinois 61953",39.792331,-88.2701279999999,Street Address,IL,SUCCESSFUL ADDRESS,72,2008-06-12,582 days 00:00:00,2010-01-15
18555,6794 Us Highway 76,,Prosperity,SC,29127,,"6794 US HIGHWAY 76, PROSPERITY, SC 29127",34.209534287906465,-81.47540605394178,Street Address,SC,SUCCESSFUL ADDRESS,72,2010-08-05,595 days 00:00:00,2012-03-22
15979,2311 Monterey Road,,Colorado Springs,CO,80910,,"2311 MONTEREY ROAD, COLORADO SPRINGS, CO 80910",38.79974425695331,-104.76759329826822,Street Address,CO,SUCCESSFUL ADDRESS,72,2010-11-02,525 days 00:00:00,2012-04-10
6356,1051 East Cary Street,Suite 1200,Richmond,Virginia,23219,,"1051 East Cary Street, Suite 1200, Richmond, Virginia 23219",37.9584360000001,-76.7574109999999,Street Address,VA,SUCCESSFUL ADDRESS,72,2023-07-03,788 days 00:00:00,2025-08-29
10198,2700 South California Avenue,,Chicago,IL,60608,,"2700 SOUTH CALIFORNIA AVENUE, CHICAGO, IL 60608",41.84077769470145,-87.69687060156372,Street Address,IL,SUCCESSFUL ADDRESS,73,2008-07-05,975 days 00:00:00,2011-03-07
13447,4750 North Five Mile Road,,Boise,ID,83713,,"4750 NORTH FIVE MILE ROAD, BOISE, ID 83713",43.64792695290643,-116.31341264078416,Street Address,ID,SUCCESSFUL ADDRESS,74,2003-07-09,430 days 00:00:00,2004-09-11
17893,350 Jose Cruz Avenue,,Agana Heights,GU,96919,,"350 JOSE CRUZ AVENUE, AGANA HEIGHTS, GU 96919",13.46502013501542,144.746977529955,Street Address,GU,SUCCESSFUL ADDRESS,74,2021-09-20,995 days 00:00:00,2024-06-11
1762,2900 S Higley Rd,,Rawlins,WY,82301,,"2900 S HIGLEY RD, RAWLINS, WY 82301",41.76246286379964,-107.21379511775596,Street Address,WY,SUCCESSFUL ADDRESS,75,2002-10-01,633 days 00:00:00,2004-06-25
16238,111 South Grand St,,Montague,TX,76251,,"111 SOUTH GRAND ST, MONTAGUE, TX 76251",33.66436840041471,-97.71901194868708,Street Address,TX,SUCCESSFUL ADDRESS,75,2004-05-13,479 days 00:00:00,2005-09-04
7669,3920 East Ashwood Rd,,Madras,OR,97741,,"3920 EAST ASHWOOD RD, MADRAS, OR 97741",44.637492995322845,-121.0510234627308,Street Address,OR,SUCCESSFUL ADDRESS,75,2013-12-26,802 days 00:00:00,2016-03-07
1399,315 Fourth Avenue,,Chula Vista,CA,91910,,"315 FOURTH AVENUE, CHULA VISTA, CA 91910",32.63993272183912,-117.08303758893597,Street Address,CA,SUCCESSFUL ADDRESS,75,2016-11-14,521 days 00:00:00,2018-04-19
403,524 Main Street,,Hazard,Kentucky,41701,,"524 Main Street, Hazard, Kentucky 41701",37.248703,-83.1956189999999,Street Address,KY,SUCCESSFUL ADDRESS,75,2020-12-15,740 days 00:00:00,2022-12-25
15803,1000 Indian School Rd,,Albuquerque,NM,87104,,"1000 INDIAN SCHOOL RD, ALBUQUERQUE, NM 87104",35.1074440820714,-106.65596044585403,Street Address,NM,SUCCESSFUL ADDRESS,76,2006-03-11,757 days 00:00:00,2008-04-06
2300,1565 West Drahner Road,,Oxford,MI,48371,,"1565 West Drahner Road, Oxford, MI 48371",42.808956383547965,-83.28646337969252,Street Address,MI,SUCCESSFUL ADDRESS,76,2016-01-05,626 days 00:00:00,2017-09-22
16963,225 Corry Street,,Yellow Springs,OH,45387,,"225 Corry Street, Yellow Springs, OH 45387",39.80597264918654,-83.88774931554272,Street Address,OH,SUCCESSFUL ADDRESS,76,2023-07-10,717 days 00:00:00,2025-06-26
13572,240 Budig Drive,,Aberdeen,OH,45101,,"240 Budig Drive, Aberdeen, OH 45101",38.66310008436736,-83.76474652598247,Street Address,OH,SUCCESSFUL ADDRESS,77,2021-06-10,658 days 00:00:00,2023-03-30
16504,6250 N 82Nd St,,Scottsdale,AZ,85250,,"6250 N 82ND ST, SCOTTSDALE, AZ 85250",33.52656318465856,-111.90559132303112,Street Address,AZ,SUCCESSFUL ADDRESS,78,2005-04-29,984 days 00:00:00,2008-01-08
9493,11100 South Memorial Parkway,,Huntsville,AL,35803,,"11100 SOUTH MEMORIAL PARKWAY, HUNTSVILLE, AL 35803",34.62744462005117,-86.56775049839064,Street Address,AL,SUCCESSFUL ADDRESS,78,2008-10-19,573 days 00:00:00,2010-05-15
4834,808 E Woodland Ave,,Barron,WI,54812,,"808 E WOODLAND AVE, BARRON, WI 54812",45.39713739105753,-91.84570196774376,Street Address,WI,SUCCESSFUL ADDRESS,78,2021-03-22,472 days 00:00:00,2022-07-07
1943,100 North Walnut Street,,Colfax,Iowa,50054,,"100 North Walnut Street, Colfax, Iowa 50054",41.6779430000001,-93.2454389999999,Street Address,IA,SUCCESSFUL ADDRESS,78,2022-05-01,641 days 00:00:00,2024-02-01
2263,5430 West Sample Road,,Margate,FL,33073,,"5430 WEST SAMPLE ROAD, MARGATE, FL 33073",26.27335577686852,-80.19795971919272,Street Address,FL,SUCCESSFUL ADDRESS,80,2011-02-02,710 days 00:00:00,2013-01-12
6461,9 W Minnesota Ave,,Winger,Minnesota,56592,,"9 W Minnesota Ave, Winger, Minnesota 56592",47.5362820000001,-95.9887309999999,Street Address,MN,SUCCESSFUL ADDRESS,80,2020-04-19,496 days 00:00:00,2021-08-28
12509,2600 Douglass Road Se,,Washington,DC,20020,,"2600 DOUGLASS ROAD SE, WASHINGTON, DC 20020",38.856433544310654,-76.98834329394772,Street Address,DC,SUCCESSFUL ADDRESS,80,2020-05-04,817 days 00:00:00,2022-07-30
15999,1205 United States Highway 22,,Phillipsburg,NJ,08865,,"1205 UNITED STATES HIGHWAY 22, PHILLIPSBURG, NJ 08865",40.6797939499388,-75.1442858226356,Street Address,NJ,SUCCESSFUL ADDRESS,80,2021-11-26,636 days 00:00:00,2023-08-24
3046,1631 Division Ave East,,Ephrata,WA,98823,,"1631 DIVISION AVE EAST, EPHRATA, WA 98823",47.31721202191356,-119.52666676888909,Street Address,WA,SUCCESSFUL ADDRESS,81,2005-01-15,520 days 00:00:00,2006-06-19
17920,4390 Campbells Run Road,,Pittsburgh,PA,15205,,"4390 CAMPBELLS RUN ROAD, PITTSBURGH, PA 15205",40.42622008902192,-80.11906891186493,Street Address,PA,SUCCESSFUL ADDRESS,81,2019-08-30,504 days 00:00:00,2021-01-15
13074,8860 Back Valley Road,,Evensville,TN,37332,,"8860 Back Valley Road, Evensville, TN 37332",35.58973996420605,-84.9469640897009,Street Address,TN,SUCCESSFUL ADDRESS,82,2009-12-03,598 days 00:00:00,2011-07-24
4276,125 Commons Way,,Villa Rica,GA,30180,,"125 COMMONS WAY, VILLA RICA, GA 30180",33.717138083619844,-84.93596862797827,Street Address,GA,SUCCESSFUL ADDRESS,82,2012-08-12,588 days 00:00:00,2014-03-23
5011,3 Signature Circle,,Sharples,WV,25183,,"3 Signature Circle, Sharples, WV 25183",37.92008850018152,-81.82942819974183,Street Address,WV,SUCCESSFUL ADDRESS,82,2023-05-22,970 days 00:00:00,2026-01-16
12256,56 Tiogue Ave,,West Warwick,RI,2893,,"56 TIOGUE AVE, WEST WARWICK, RI 2893",41.68028400017896,-71.5297679998114,Street Address,RI,SUCCESSFUL ADDRESS,83,2006-06-27,591 days 00:00:00,2008-02-08
6887,1 Middlebrook Rd,RT 7,Ferrisburg,VT,5456,,"1 MIDDLEBROOK RD RT 7, FERRISBURG, VT 5456",44.20562799993246,-73.2461329996731,Street Address,VT,SUCCESSFUL ADDRESS,83,2008-12-22,705 days 00:00:00,2010-11-27
11936,505 Barrick Rd,,Janesville,IA,50647,,"505 BARRICK RD, JANESVILLE, IA 50647",42.64988588891755,-92.4589278081922,Street Address,IA,SUCCESSFUL ADDRESS,83,2016-08-17,410 days 00:00:00,2017-10-01
8244,13856 North Dale Mabry Highway,,Tampa,FL,33618,,"13856 NORTH DALE MABRY HIGHWAY, TAMPA, FL 33618",28.071022887903663,-82.506983944585,Street Address,FL,SUCCESSFUL ADDRESS,83,2019-06-01,441 days 00:00:00,2020-08-15
14151,230 Ne 6Th St,,Bend,OR,97701,,"230 NE 6TH ST, BEND, OR 97701",44.05225640889077,-121.29591409625714,Street Address,OR,SUCCESSFUL ADDRESS,83,2020-03-29,915 days 00:00:00,2022-09-30
8268,18 County Road 50,,Velarde,NM,87582,,"18 County Road 50, Velarde, NM 87582",36.17054584359551,-105.9673712746877,Street Address,NM,SUCCESSFUL ADDRESS,84,2001-05-10,441 days 00:00:00,2002-07-25
15454,13823 Outlet Drive,,Silver Spring,MD,20904,,"13823 OUTLET DRIVE, SILVER SPRING, MD 20904",39.08217822513807,-76.9453739238409,Street Address,MD,SUCCESSFUL ADDRESS,84,2002-12-25,655 days 00:00:00,2004-10-10
5353,6624 Beard Woods Lane,,Harrisonburg,VA,22802,,"6624 BEARD WOODS LANE, HARRISONBURG, VA 22802",38.53186597201819,-78.81655786594932,Street Address,VA,SUCCESSFUL ADDRESS,84,2015-02-28,966 days 00:00:00,2017-10-21
13006,105 W Jones St,,Hollis,OK,73550,,"105 W JONES ST, HOLLIS, OK 73550",34.682631940032294,-99.91892100007414,Street Address,OK,SUCCESSFUL ADDRESS,85,2006-01-03,808 days 00:00:00,2008-03-21
6064,603 Avenue B,,Youngsville,LA,70592,,"603 AVENUE B, YOUNGSVILLE, LA 70592",30.095230925825625,-91.99761460567886,Street Address,LA,SUCCESSFUL ADDRESS,85,2011-01-21,819 days 00:00:00,2013-04-19
18804,410 Atlantic Boulevard,,Neptune Beach,FL,32266,,"410 ATLANTIC BOULEVARD, NEPTUNE BEACH, FL 32266",30.324269570756748,-81.39915366867207,Street Address,FL,SUCCESSFUL ADDRESS,85,2014-06-28,923 days 00:00:00,2017-01-06
956,20 N Whittlesey Ave,,Wallingford,CT,6492,,"20 N WHITTLESEY AVE, WALLINGFORD, CT 6492",41.45553999987648,-72.81963899973046,Street Address,CT,SUCCESSFUL ADDRESS,86,2004-08-12,477 days 00:00:00,2005-12-02
6965,300 Fountain School Rd,,Rocky Mount,NC,27804,,"300 FOUNTAIN SCHOOL RD, ROCKY MOUNT, NC 27804",35.99716370921832,-77.77115777783847,Street Address,NC,SUCCESSFUL ADDRESS,86,2011-03-28,695 days 00:00:00,2013-02-20
11502,3703 Harrison Avenue,,Butte,MT,59701,,"3703 HARRISON AVENUE, BUTTE, MT 59701",45.9698355047298,-112.50853167715694,Street Address,MT,SUCCESSFUL ADDRESS,86,2019-06-02,711 days 00:00:00,2021-05-13
12899,99 Church St,,Lowell,MA,1852,,"99 CHURCH ST, LOWELL, MA 1852",42.64148200030152,-71.30607000027379,Street Address,MA,SUCCESSFUL ADDRESS,87,2006-01-14,820 days 00:00:00,2008-04-13
5830,92 Wilson St,,Keene,NH,3431,,"92 WILSON ST, KEENE, NH 3431",42.92925600021135,-72.27988500003258,Street Address,NH,SUCCESSFUL ADDRESS,87,2008-05-06,726 days 00:00:00,2010-05-02
18600,842 Ashley 12 West,,Hamburg,AR,71646,,"842 ASHLEY 12 WEST, HAMBURG, AR 71646",33.2291238164048,-91.81351791849455,Street Address,AR,SUCCESSFUL ADDRESS,87,2021-07-07,700 days 00:00:00,2023-06-07
9282,201 S Mountain Ave,,Ashland,OR,97520,,"201 S MOUNTAIN AVE, ASHLAND, OR 97520",42.19094433232561,-122.70029699529792,Street Address,OR,SUCCESSFUL ADDRESS,88,2005-03-30,848 days 00:00:00,2007-07-26
2165,60 Littleton Road,,Parsippany,NJ,07054,,"60 Littleton Road, Parsippany, NJ 07054",40.86732322975772,-74.41634245779855,Street Address,NJ,SUCCESSFUL ADDRESS,88,2007-12-24,749 days 00:00:00,2010-01-11
16100,2263 Otranto Road,,North Charleston,SC,29406,,"2263 OTRANTO ROAD, NORTH CHARLESTON, SC 29406",32.963357957098204,-80.04900722864647,Street Address,SC,SUCCESSFUL ADDRESS,88,2018-02-17,928 days 00:00:00,2020-09-02
18076,506 Second St,,Craig,AK,99921,,"506 SECOND ST, CRAIG, AK 99921",55.475739745492966,-133.15203788579956,Street Address,AK,SUCCESSFUL ADDRESS,89,2003-09-12,656 days 00:00:00,2005-06-29
1888,1400 16Th Street,,Denver,Colorado,80202,,"1400 16th Street, Denver, Colorado 80202",39.749938,-104.998416,Street Address,CO,SUCCESSFUL ADDRESS,89,2007-09-05,998 days 00:00:00,2010-05-30
11412,11 Riverview Ter,,West Haven,CT,6516,,"11 RIVERVIEW TER, WEST HAVEN, CT 6516",41.2640239997568,-72.96197600008043,Street Address,CT,SUCCESSFUL ADDRESS,89,2009-08-19,465 days 00:00:00,2010-11-27
7215,380 Chase Street,,Walla Walla,WA,99362,,"380 CHASE STREET, WALLA WALLA, WA 99362",46.06059810554939,-118.3415056458021,Street Address,WA,SUCCESSFUL ADDRESS,89,2010-06-21,872 days 00:00:00,2012-11-09
17202,559 Railroad,,Buena Vista,CO,81211,,"559 RAILROAD, BUENA VISTA, CO 81211",38.836390372699015,-106.1269123961341,Street Address,CO,SUCCESSFUL ADDRESS,89,2015-09-29,858 days 00:00:00,2018-02-03
4728,1760 Chicago Avenue,,Riverside,CA,92507,,"1760 CHICAGO AVENUE, RIVERSIDE, CA 92507",33.995247116077465,-117.34782230686716,Street Address,CA,SUCCESSFUL ADDRESS,89,2023-06-26,547 days 00:00:00,2024-12-24
2085,127 Upper Welden St,,St Albans,VT,5478,,"127 UPPER WELDEN ST, ST ALBANS, VT 5478",44.80234599991204,-73.07057199988111,Street Address,VT,SUCCESSFUL ADDRESS,90,2000-06-29,642 days 00:00:00,2002-04-02
14733,5 Courthouse Square,,Lewisville,AR,71845,,"5 COURTHOUSE SQUARE, LEWISVILLE, AR 71845",33.35798815815008,-93.57712272542392,Street Address,AR,SUCCESSFUL ADDRESS,90,2016-10-28,845 days 00:00:00,2019-02-20
50,1401 N Street,,Lincoln,Nebraska,68508,,"1401 N Street, Lincoln, Nebraska 68508",38.9190610000001,-97.214807,Street Address,NE,SUCCESSFUL ADDRESS,90,2016-11-26,472 days 00:00:00,2018-03-13
11525,598 Columbia Turnpike,,East Greenbush,NY,12061,,"598 COLUMBIA TURNPIKE, EAST GREENBUSH, NY 12061",42.59823892171214,-73.71028166341385,Street Address,NY,SUCCESSFUL ADDRESS,91,2000-12-04,844 days 00:00:00,2003-03-28
11138,50 East Main Street,,Albion,IL,62806,,"50 EAST MAIN STREET, ALBION, IL 62806",38.37770600332523,-88.05732531819031,Street Address,IL,SUCCESSFUL ADDRESS,91,2004-08-26,510 days 00:00:00,2006-01-18
12171,2427 Mims Rd,,Hephzibah,GA,30815,,"2427 MIMS RD, HEPHZIBAH, GA 30815",33.30201733966844,-82.09275592960394,Street Address,GA,SUCCESSFUL ADDRESS,91,2012-07-25,559 days 00:00:00,2014-02-04
6544,324 Corys Ln,,Portsmouth,RI,2871,,"324 CORYS LN, PORTSMOUTH, RI 2871",41.60058299996262,-71.27483900042618,Street Address,RI,SUCCESSFUL ADDRESS,91,2012-09-25,649 days 00:00:00,2014-07-06
8942,310 E Grant,,Meade,KS,67864,,"310 E GRANT, MEADE, KS 67864",37.28806068081016,-100.33642042921475,Street Address,KS,SUCCESSFUL ADDRESS,92,2000-08-26,975 days 00:00:00,2003-04-28
3842,300 Congress Dr Hwy 33,,Newburg,Wisconsin,53060,,"300 Congress Dr Hwy 33, Newburg, Wisconsin 53060",43.4302240000001,-88.0469479999999,Street Address,WI,SUCCESSFUL ADDRESS,92,2021-10-31,958 days 00:00:00,2024-06-15
19502,3 Craftsman Ln,,Amherst,NH,3031,,"3 CRAFTSMAN LN, AMHERST, NH 3031",42.80507199987846,-71.56056799966377,Street Address,NH,SUCCESSFUL ADDRESS,93,2008-09-19,829 days 00:00:00,2010-12-27
2826,11636 Hwy 84,,Bismarck,AR,71929,,"11636 HWY 84, BISMARCK, AR 71929",34.31547009979727,-93.17481100737062,Street Address,AR,SUCCESSFUL ADDRESS,93,2022-10-17,904 days 00:00:00,2025-04-08
8295,102 W Madison St,,Phoenix,AZ,85003,,"102 W MADISON ST, PHOENIX, AZ 85003",33.446252998702946,-112.0756288141246,Street Address,AZ,SUCCESSFUL ADDRESS,94,2000-10-02,674 days 00:00:00,2002-08-07
8873,19987 State Highway 676,,Marietta,OH,45750,,"19987 State Highway 676, Marietta, OH 45750",39.443922438110825,-81.52178124990445,Street Address,OH,SUCCESSFUL ADDRESS,94,2010-04-16,543 days 00:00:00,2011-10-11
2301,1301 A Street,,Tacoma,Washington,98402,,"1301 A Street, Tacoma, Washington 98402",48.4698660000001,-122.33716,Street Address,WA,SUCCESSFUL ADDRESS,95,2003-06-16,745 days 00:00:00,2005-06-30
5368,216 Union Street,,Covington,IN,47932,,"216 UNION STREET, COVINGTON, IN 47932",40.13519782684756,-87.39775616466868,Street Address,IN,SUCCESSFUL ADDRESS,95,2006-06-29,932 days 00:00:00,2009-01-16
3951,261 Tremont St,,Taunton,MA,2780,,"261 TREMONT ST, TAUNTON, MA 2780",41.91035800008908,-71.13203699974582,Street Address,MA,SUCCESSFUL ADDRESS,95,2010-05-23,831 days 00:00:00,2012-08-31
15633,2001 W Starr Pass Blvd,,Tucson,AZ,85713,,"2001 W STARR PASS BLVD, TUCSON, AZ 85713",32.206259762084926,-111.01088615513775,Street Address,AZ,SUCCESSFUL ADDRESS,95,2015-03-26,845 days 00:00:00,2017-07-18
914,332 1St Avenue West,,Cascade,Iowa,52033,,"332 1st Avenue West, Cascade, Iowa 52033",42.2982160000001,-91.0159119999999,Street Address,IA,SUCCESSFUL ADDRESS,96,2011-10-12,892 days 00:00:00,2014-03-22
5281,525 East Birch Street,,Glenrock,WY,82637,,"525 EAST BIRCH STREET, GLENROCK, WY 82637",42.861038073142495,-105.85797362820892,Street Address,WY,SUCCESSFUL ADDRESS,96,2015-07-25,366 days 00:00:00,2016-07-25
2066,7200 Barrister Dr,,Boise,ID,83704,,"7200 BARRISTER DR, BOISE, ID 83704",43.60826629679977,-116.26987986355137,Street Address,ID,SUCCESSFUL ADDRESS,96,2022-03-08,636 days 00:00:00,2023-12-04
12053,101 East Main Street,,Florence,Colorado,81226,,"101 East Main Street, Florence, Colorado 81226",38.3899270000001,-105.117586,Street Address,CO,SUCCESSFUL ADDRESS,97,2001-05-08,470 days 00:00:00,2002-08-21
3574,2420 Kilauea Ave,,Hilo,HI,96720,,"2420 KILAUEA AVE, HILO, HI 96720",19.68347612799447,-155.06774821811393,Street Address,HI,SUCCESSFUL ADDRESS,97,2004-11-19,870 days 00:00:00,2007-04-08
12207,1560 Williston Rd,,S Burlington,VT,5403,,"1560 WILLISTON RD, S BURLINGTON, VT 5403",44.46488599992597,-73.16205500009455,Street Address,VT,SUCCESSFUL ADDRESS,97,2012-10-26,882 days 00:00:00,2015-03-27
2475,701 Chief St,,Benkelman,NE,69021,,"701 CHIEF ST, BENKELMAN, NE 69021",40.05070261317245,-101.53348734245456,Street Address,NE,SUCCESSFUL ADDRESS,97,2020-04-02,524 days 00:00:00,2021-09-08
7481,815 5Th Street,,Delaware City,DE,19706,,"815 5th Street, Delaware City, DE 19706",39.574631674457045,-75.59768148533878,Street Address,DE,SUCCESSFUL ADDRESS,98,2010-02-26,520 days 00:00:00,2011-07-31
13487,7334 Ne Siskiyou St,,Portland,OR,97213,,"7334 NE SISKIYOU ST, PORTLAND, OR 97213",45.543960219103504,-122.5876249716422,Street Address,OR,SUCCESSFUL ADDRESS,98,2010-04-17,697 days 00:00:00,2012-03-14
3001,419 South Grand Street,,Cherokee,Oklahoma,73728,,"419 South Grand Street, Cherokee, Oklahoma 73728",36.5455710000001,-98.2699669999999,Street Address,OK,SUCCESSFUL ADDRESS,98,2021-10-16,590 days 00:00:00,2023-05-29
17065,30 N Main St,,Randolph,VT,5060,,"30 N MAIN ST, RANDOLPH, VT 5060",43.92517799967758,-72.66579500010415,Street Address,VT,SUCCESSFUL ADDRESS,99,2015-07-02,784 days 00:00:00,2017-08-24
6238,301 Washington Street,,Cedar Falls,Iowa,50613,,"301 Washington Street, Cedar Falls, Iowa 50613",42.7461500000001,-92.7951689999999,Street Address,IA,SUCCESSFUL ADDRESS,100,2010-04-19,749 days 00:00:00,2012-05-07
12601,123 Walcott St,,Pawtucket,RI,2860,,"123 WALCOTT ST, PAWTUCKET, RI 2860",41.8771529997119,-71.37610699958489,Street Address,RI,SUCCESSFUL ADDRESS,100,2017-12-21,483 days 00:00:00,2019-04-18
12642,950 East Bogard Road,,Wasilla,AK,99654,,"950 EAST BOGARD ROAD, WASILLA, AK 99654",61.58701897340144,-149.4243049753969,Street Address,AK,SUCCESSFUL ADDRESS,101,2008-08-19,634 days 00:00:00,2010-05-15
4322,1865 Waterloo Road,,Russellville,AL,35653,,"1865 WATERLOO ROAD, RUSSELLVILLE, AL 35653",34.52510153405246,-87.73926361591093,Street Address,AL,SUCCESSFUL ADDRESS,101,2008-08-27,812 days 00:00:00,2010-11-17
9999,1540 South Cleveland Massillon Road,,Copley,OH,44321,,"1540 South Cleveland Massillon Road, Copley, OH 44321",41.0963930667254,-81.64520014629083,Street Address,OH,SUCCESSFUL ADDRESS,102,2000-02-22,866 days 00:00:00,2002-07-07
66,1121 Middle St,,Honolulu,HI,96819,,"1121 MIDDLE ST, HONOLULU, HI 96819",21.33849590411221,-157.88178314198666,Street Address,HI,SUCCESSFUL ADDRESS,102,2001-01-20,573 days 00:00:00,2002-08-16
7890,550 South 10Th Street,,Watseka,IL,60970,,"550 SOUTH 10TH STREET, WATSEKA, IL 60970",40.771759549902406,-87.71853052671804,Street Address,IL,SUCCESSFUL ADDRESS,102,2011-11-08,512 days 00:00:00,2013-04-03
19657,301 N Calverton Rd,,Baltimore,MD,21223,,"301 N CALVERTON RD, BALTIMORE, MD 21223",39.292736543346976,-76.6599746726434,Street Address,MD,SUCCESSFUL ADDRESS,104,2000-12-04,721 days 00:00:00,2002-11-25
8054,250 East State Road 73,,Saratoga Springs,UT,84045,,"250 EAST STATE ROAD 73, SARATOGA SPRINGS, UT 84045",40.38800011875782,-111.9104470108909,Street Address,UT,SUCCESSFUL ADDRESS,104,2006-06-03,655 days 00:00:00,2008-03-19
17707,25 South Frazier Avenue,,Wheeling,WV,26003,,"25 South Frazier Avenue, Wheeling, WV 26003",40.03367996191693,-80.71514892648902,Street Address,WV,SUCCESSFUL ADDRESS,104,2009-09-19,650 days 00:00:00,2011-07-01
13084,2330 Shawnee Mission Parkway,,Westwood,KS,66205,,"2330 SHAWNEE MISSION PARKWAY, WESTWOOD, KS 66205",39.03397356461032,-94.61318128879196,Street Address,KS,SUCCESSFUL ADDRESS,104,2016-08-04,876 days 00:00:00,2018-12-28
14200,938 2Nd Avenue West,,Dickinson,ND,58601,,"938 2ND AVENUE WEST, DICKINSON, ND 58601",46.889440422530846,-102.78672762570152,Street Address,ND,SUCCESSFUL ADDRESS,104,2021-07-11,389 days 00:00:00,2022-08-04
2035,33 Convent Ave,,Norwich,CT,6360,,"33 CONVENT AVE, NORWICH, CT 6360",41.52984099971438,-72.06065300008282,Street Address,CT,SUCCESSFUL ADDRESS,105,2000-12-28,456 days 00:00:00,2002-03-29
2308,1930 Peace Haven Road,,Winston Salem,NC,27106,,"1930 PEACE HAVEN ROAD, WINSTON SALEM, NC 27106",36.11894427699856,-80.31306889916371,Street Address,NC,SUCCESSFUL ADDRESS,105,2012-08-18,455 days 00:00:00,2013-11-16
275,510 1St St,,Hillsboro,MO,63050,,"510 1ST ST, HILLSBORO, MO 63050",38.23098096651837,-90.56574307239424,Street Address,MO,SUCCESSFUL ADDRESS,105,2017-05-28,997 days 00:00:00,2020-02-19
229,151 South 8Th Street,,Carlin,NV,89822,,"151 SOUTH 8TH STREET, CARLIN, NV 89822",40.71291604621289,-116.10616086451756,Street Address,NV,SUCCESSFUL ADDRESS,106,2023-08-24,797 days 00:00:00,2025-10-29
15889,12604 133Rd Ave,,S Ozone Park,NY,11420,,"12604 133RD AVE, S OZONE PARK, NY 11420",40.67097299994787,-73.81281599966226,Street Address,NY,SUCCESSFUL ADDRESS,107,2011-03-20,496 days 00:00:00,2012-07-28
2374,68 Myrtle St,,Clairmont,NH,3743,,"68 MYRTLE ST, CLAIRMONT, NH 3743",43.370853000150056,-72.3459510002235,Street Address,NH,SUCCESSFUL ADDRESS,107,2018-10-03,774 days 00:00:00,2020-11-15
10699,202 2Nd Avenue South,,Cold Spring,Minnesota,56320,,"202 2nd Avenue South, Cold Spring, Minnesota 56320",45.457975,-94.4180489999999,Street Address,MN,SUCCESSFUL ADDRESS,107,2019-03-25,655 days 00:00:00,2021-01-08
712,680 Hightower,,Girdwood,AK,99587,,"680 HIGHTOWER, GIRDWOOD, AK 99587",60.96863303491753,-149.12755603265026,Street Address,AK,SUCCESSFUL ADDRESS,108,2003-10-26,465 days 00:00:00,2005-02-02
17315,2201 Carrs Mill Road,,Fallston,MD,21047-1802,,"2201 Carrs Mill Road, Fallston, MD 21047-1802",39.524544434822765,-76.41259633855586,Street Address,MD,SUCCESSFUL ADDRESS,108,2009-04-16,644 days 00:00:00,2011-01-20
318,1695 Elizabeth Pike,,Mineral Wells,WV,26150,,"1695 Elizabeth Pike, Mineral Wells, WV 26150",39.1795128001161,-81.5132618999394,Street Address,WV,SUCCESSFUL ADDRESS,108,2009-06-18,740 days 00:00:00,2011-06-28
14061,1851 Madison Avenue,Suite 17,Council Bluffs,Iowa,51503,,"1851 Madison Avenue, Suite 17, Council Bluffs, Iowa 51503",41.478031,-95.3394289999999,Street Address,IA,SUCCESSFUL ADDRESS,108,2015-07-08,661 days 00:00:00,2017-04-29
2407,500 19Th St Ne,,Washington,DC,20002,,"500 19TH ST NE, WASHINGTON, DC 20002",38.89667547226335,-76.97744680141659,Street Address,DC,SUCCESSFUL ADDRESS,109,2004-06-17,771 days 00:00:00,2006-07-28
9185,174 Willowcrest Dr,,Windsor,CT,6095,,"174 WILLOWCREST DR, WINDSOR, CT 6095",41.82681600027062,-72.68385500007066,Street Address,CT,SUCCESSFUL ADDRESS,109,2004-11-23,868 days 00:00:00,2007-04-10
19719,100 South Phillips Avenue,, Sioux Falls,South Dakota,57101,,"100 South Phillips Avenue, Sioux Falls, South Dakota 57101",44.0494770000001,-96.5944319999999,Street Address,SD,SUCCESSFUL ADDRESS,109,2010-09-24,576 days 00:00:00,2012-04-22
12464,2406 Grove Street,,Vicksburg,MS,39183,,"2406 GROVE STREET, VICKSBURG, MS 39183",32.351510406181575,-90.87384401969663,Street Address,MS,SUCCESSFUL ADDRESS,109,2016-01-24,367 days 00:00:00,2017-01-25
9415,1710 East Windsor Road,,Urbana,IL,61802,,"1710 EAST WINDSOR ROAD, URBANA, IL 61802",40.08481276678144,-88.18713553433882,Street Address,IL,SUCCESSFUL ADDRESS,110,2000-02-21,480 days 00:00:00,2001-06-15
3064,2360 Corporate Circle,,Henderson,NV,89074,,"2360 CORPORATE CIRCLE, HENDERSON, NV 89074",36.025346078858206,-115.08712293781105,Street Address,NV,SUCCESSFUL ADDRESS,110,2017-03-08,967 days 00:00:00,2019-10-31
813,202 Los Altos Parkway,,Sparks,NV,89436,,"202 LOS ALTOS PARKWAY, SPARKS, NV 89436",39.585123597347085,-119.74067159859328,Street Address,NV,SUCCESSFUL ADDRESS,111,2000-10-12,554 days 00:00:00,2002-04-19
6129,2565 Old Milton Pkwy,,Alpharetta,GA,30004,,"2565 OLD MILTON PKWY, ALPHARETTA, GA 30004",34.068872319336414,-84.2846989743754,Street Address,GA,SUCCESSFUL ADDRESS,111,2002-02-26,473 days 00:00:00,2003-06-14
150,410 North Main Street,,Summerville,SC,29483,,"410 NORTH MAIN STREET, SUMMERVILLE, SC 29483",33.02472046098547,-80.17206567333014,Street Address,SC,SUCCESSFUL ADDRESS,112,2007-12-17,961 days 00:00:00,2010-08-04
18880,10 Middle School Lane,,Charleston,WV,25312,,"10 Middle School Lane, Charleston, WV 25312",38.464847200141584,-81.66752360000312,Street Address,WV,SUCCESSFUL ADDRESS,112,2012-06-21,671 days 00:00:00,2014-04-23
235,4717 Main Street,,Hodges,SC,29653,,"4717 MAIN STREET, HODGES, SC 29653",34.287051176663844,-82.25371876075158,Street Address,SC,SUCCESSFUL ADDRESS,112,2019-12-19,671 days 00:00:00,2021-10-20
9335,1375 Mount Olivet Road Ne,,Washington,DC,20002,,"1375 MOUNT OLIVET ROAD NE, WASHINGTON, DC 20002",38.90776204712811,-76.98144166877388,Street Address,DC,SUCCESSFUL ADDRESS,113,2004-11-12,422 days 00:00:00,2006-01-08
11115,12 First Avenue,,Laurel,Montana,59044,,"12 First Avenue, Laurel, Montana 59044",45.6697750000001,-108.771676,Street Address,MT,SUCCESSFUL ADDRESS,113,2011-12-26,820 days 00:00:00,2014-03-25
12608,11479 Southwest 40Th Street,,Miami,FL,33165,,"11479 SOUTHWEST 40TH STREET, MIAMI, FL 33165",25.73382406806818,-80.3800978053043,Street Address,FL,SUCCESSFUL ADDRESS,113,2016-12-01,693 days 00:00:00,2018-10-25
5488,227 N Mill,,St Louis,MI,48880,,"227 N MILL, ST LOUIS, MI 48880",43.410159793128415,-84.60909280739467,Street Address,MI,SUCCESSFUL ADDRESS,113,2021-11-11,670 days 00:00:00,2023-09-12
12275,4704 State Rt 149,,Hartford,NY,12838,,"4704 STATE RT 149, HARTFORD, NY 12838",43.360444428809465,-73.39637765477181,Street Address,NY,SUCCESSFUL ADDRESS,114,2000-12-13,497 days 00:00:00,2002-04-24
8776,520 Harmon Loop,,Harmon,GU,96929,,"520 HARMON LOOP, HARMON, GU 96929",13.50966665681928,144.82471392488756,Street Address,GU,SUCCESSFUL ADDRESS,114,2003-07-17,797 days 00:00:00,2005-09-21
13822,194 Chalan Kasperbauer,,Dededo,GU,96929,,"194 CHALAN KASPERBAUER, DEDEDO, GU 96929",13.567851238852992,144.8487931061783,Street Address,GU,SUCCESSFUL ADDRESS,114,2018-07-10,783 days 00:00:00,2020-08-31
6519,1 Hospital Court,,Bellows Falls,VT,05101,,"1 HOSPITAL COURT, BELLOWS FALLS, VT 05101",43.12749525517821,-72.44476783922995,Street Address,VT,SUCCESSFUL ADDRESS,115,2009-05-22,460 days 00:00:00,2010-08-25
940,114 Illinois St,,Anaktuvuk Pass,AK,99721,,"114 ILLINOIS ST, ANAKTUVUK PASS, AK 99721",68.13983568286544,-151.73855669056528,Street Address,AK,SUCCESSFUL ADDRESS,116,2003-06-09,469 days 00:00:00,2004-09-20
3862,4002 Samuelson Ave,,Sandpoint,ID,83864,,"4002 SAMUELSON AVE, SANDPOINT, ID 83864",48.30786262121276,-116.56108464930898,Street Address,ID,SUCCESSFUL ADDRESS,116,2008-01-21,380 days 00:00:00,2009-02-04
13568,2001 Pleasant Ridge Drive,,Lexington,Kentucky,40505,,"2001 Pleasant Ridge Drive, Lexington, Kentucky 40505",38.197748,-84.8757899999999,Street Address,KY,SUCCESSFUL ADDRESS,116,2022-12-05,677 days 00:00:00,2024-10-12
3226,380 Coffee Tree Rd,,Frankfort,KY,40602,,"380 COFFEE TREE RD, FRANKFORT, KY 40602",38.1796936734556,-84.86047294944028,Street Address,KY,SUCCESSFUL ADDRESS,117,2011-05-09,818 days 00:00:00,2013-08-04
19847,1550 Harrison Street,,Twin Falls,ID,83301,,"1550 HARRISON STREET, TWIN FALLS, ID 83301",42.52248213529233,-114.47117932442056,Street Address,ID,SUCCESSFUL ADDRESS,118,2006-12-14,837 days 00:00:00,2009-03-30
11737,855 Rolling Meadows Rd,,Waynesburg,PA,15370,,"855 ROLLING MEADOWS RD, WAYNESBURG, PA 15370",39.88921904706313,-80.12885355736145,Street Address,PA,SUCCESSFUL ADDRESS,118,2012-06-02,445 days 00:00:00,2013-08-21
9458,9001 North Country Homes Boulevard,,Spokane,WA,99218,,"9001 NORTH COUNTRY HOMES BOULEVARD, SPOKANE, WA 99218",47.739680732273534,-117.41576014637847,Street Address,WA,SUCCESSFUL ADDRESS,118,2021-11-16,660 days 00:00:00,2023-09-07
17491,19 Deerfield Dr,,New Limerick,ME,4761,,"19 DEERFIELD DR, NEW LIMERICK, ME 4761",46.104260999892894,-67.91453799981649,Street Address,ME,SUCCESSFUL ADDRESS,118,2023-05-31,782 days 00:00:00,2025-07-21
60,18582 Beach Boulevard,,Huntington Beach,CA,92648,,"18582 BEACH BOULEVARD, HUNTINGTON BEACH, CA 92648",33.69297473299919,-117.9881611531198,Street Address,CA,SUCCESSFUL ADDRESS,119,2018-01-22,449 days 00:00:00,2019-04-16
2283,15425 East Mission Avenue,,Veradale,WA,99037,,"15425 EAST MISSION AVENUE, VERADALE, WA 99037",47.66701147574013,-117.19713563663116,Street Address,WA,SUCCESSFUL ADDRESS,119,2021-12-17,714 days 00:00:00,2023-12-01
780,200 South 1St Street,,Crowell,TX,79227,,"200 SOUTH 1ST STREET, CROWELL, TX 79227",33.98214289272459,-99.72402503158447,Street Address,TX,SUCCESSFUL ADDRESS,120,2019-09-06,393 days 00:00:00,2020-10-03
15197,114 Yorktown St,,Somerville,MA,2144,,"114 YORKTOWN ST, SOMERVILLE, MA 2144",42.40061699996398,-71.12883099963338,Street Address,MA,SUCCESSFUL ADDRESS,121,2008-04-17,866 days 00:00:00,2010-08-31
18348,19 Complex Blvd,,Ronan,MT,59864,,"19 COMPLEX BLVD, RONAN, MT 59864",47.595484374736245,-114.11429421518903,Street Address,MT,SUCCESSFUL ADDRESS,121,2010-07-18,408 days 00:00:00,2011-08-30
5779,1173 State Highway 100,,Centerville,TN,37033,,"1173 State Highway 100, Centerville, TN 37033",35.81636708660681,-87.43754171024418,Street Address,TN,SUCCESSFUL ADDRESS,121,2011-05-27,465 days 00:00:00,2012-09-03
9116,287 North Main St,,Lewisburg,Kentucky,42256,,"287 North Main St, Lewisburg, Kentucky 42256",36.6671040000001,-86.8528619999999,Street Address,KY,SUCCESSFUL ADDRESS,121,2013-07-20,994 days 00:00:00,2016-04-09
3943,20 Calle Bomberos,,Jemez Springs,NM,87025,,"20 Calle Bomberos, Jemez Springs, NM 87025",35.760653741841615,-106.69865419037384,Street Address,NM,SUCCESSFUL ADDRESS,122,2013-05-09,546 days 00:00:00,2014-11-06
3996,705 Washington Street,,Ravenswood,WV,26164,,"705 WASHINGTON STREET, RAVENSWOOD, WV 26164",38.95607316260763,-81.76705886845468,Street Address,WV,SUCCESSFUL ADDRESS,122,2014-01-30,931 days 00:00:00,2016-08-18
1042,1St Street,,Holloman Air Force Base,NM,88330,,"1st Street, Holloman Air Force Base, NM 88330",32.833518531635264,-106.0690342127712,Street Address,NM,SUCCESSFUL ADDRESS,122,2021-06-15,493 days 00:00:00,2022-10-21
480,102 Nw Fairbanks Ave,,Coffman Cove,AK,99918,,"102 NW FAIRBANKS AVE, COFFMAN COVE, AK 99918",56.01407389494647,-132.82798003594044,Street Address,AK,SUCCESSFUL ADDRESS,123,2008-06-22,784 days 00:00:00,2010-08-15
4070,97 North Main Street,,Kilmarnock,Virginia,22482,,"97 North Main Street, Kilmarnock, Virginia 22482",37.7138,-76.3811559999999,Street Address,VA,SUCCESSFUL ADDRESS,123,2020-08-15,554 days 00:00:00,2022-02-20
2513,3095 Bath Road,,Bath,Indiana,47010,,"3095 Bath Road, Bath, Indiana 47010",39.5085510000001,-84.8249099999999,Street Address,IN,SUCCESSFUL ADDRESS,124,2006-07-26,932 days 00:00:00,2009-02-12
10834,140 Calle Ramon Torres,# 12,Florida,PR,00650,,"CARR 140 CALLE RAMON TORRES #12, FLORIDA, PR 00650",18.372014437842896,-66.56526517499798,Street Address,PR,SUCCESSFUL ADDRESS,124,2023-05-04,643 days 00:00:00,2025-02-05
2846,1800 48Th Ave Sw,,Bismarck,ND,58506,,"1800 48TH AVE SW, BISMARCK, ND 58506",46.75378779115077,-100.82278079354944,Street Address,ND,SUCCESSFUL ADDRESS,125,2004-07-13,804 days 00:00:00,2006-09-25
17225,202 Clark Street,,Bassett,Nebraska,68714,,"202 Clark Street, Bassett, Nebraska 68714",41.2642440000001,-101.689816,Street Address,NE,SUCCESSFUL ADDRESS,125,2005-03-08,383 days 00:00:00,2006-03-26
1158,660 Kailua Road,,Kailua,HI,96734,,"660 KAILUA ROAD, KAILUA, HI 96734",21.39461018834697,-157.7427623479665,Street Address,HI,SUCCESSFUL ADDRESS,125,2023-06-08,791 days 00:00:00,2025-08-07
5237,169 San Isidro St,,Mangilao,GU,96923,,"169 SAN ISIDRO ST, MANGILAO, GU 96923",13.450689430619766,144.79785470446024,Street Address,GU,SUCCESSFUL ADDRESS,126,2014-03-28,618 days 00:00:00,2015-12-06
9362,3909 Mcfarland Boulevard,,Northport,AL,35476,,"3909 MCFARLAND BOULEVARD, NORTHPORT, AL 35476",33.238326557889685,-87.59773804040091,Street Address,AL,SUCCESSFUL ADDRESS,127,2003-07-31,779 days 00:00:00,2005-09-17
17682,3777 Commercial Street Southeast,,Salem,OR,97302,,"3777 COMMERCIAL STREET SOUTHEAST, SALEM, OR 97302",44.90141609916999,-123.04016671559928,Street Address,OR,SUCCESSFUL ADDRESS,127,2003-09-15,653 days 00:00:00,2005-06-29
14640,21036 Triple Seven Road,,Sterling,VA,20165,,"21036 TRIPLE SEVEN ROAD, STERLING, VA 20165",39.03364968823647,-77.40659988107555,Street Address,VA,SUCCESSFUL ADDRESS,127,2019-12-07,411 days 00:00:00,2021-01-21
14191,1550 United States Highway 20 South,,Worland,WY,82401,,"1550 UNITED STATES HIGHWAY 20 SOUTH, WORLAND, WY 82401",43.956469221594254,-108.0205523299882,Street Address,WY,SUCCESSFUL ADDRESS,127,2020-02-19,534 days 00:00:00,2021-08-06
11066,15015 62Nd Street North,,Stillwater,MN,55082,,"15015 62ND STREET NORTH, STILLWATER, MN 55082",45.03758639758978,-92.80166194596772,Street Address,MN,SUCCESSFUL ADDRESS,128,2001-02-21,983 days 00:00:00,2003-11-01
18626,215 Hollywood Street,,Bethany Beach,DE,19930,,"215 Hollywood Street, Bethany Beach, DE 19930",38.53756185751024,-75.05843766224697,Street Address,DE,SUCCESSFUL ADDRESS,129,2009-11-27,613 days 00:00:00,2011-08-02
8393,120 Kaiulani Avenue,,Honolulu,HI,96815,,"120 KAIULANI AVENUE, HONOLULU, HI 96815",21.277679118122627,-157.82606103118832,Street Address,HI,SUCCESSFUL ADDRESS,129,2012-12-09,866 days 00:00:00,2015-04-24
14563,5 Rockingham Rd,,Londonderry,NH,3053,,"5 ROCKINGHAM RD, LONDONDERRY, NH 3053",42.89917200007134,-71.34084000031976,Street Address,NH,SUCCESSFUL ADDRESS,129,2013-09-07,567 days 00:00:00,2015-03-28
18923,3863 Franklin Road,,Murfreesboro,TN,37128,,"3863 Franklin Road, Murfreesboro, TN 37128",35.84432825199272,-86.46109738386959,Street Address,TN,SUCCESSFUL ADDRESS,130,2010-07-11,619 days 00:00:00,2012-03-21
14657,6 Staudt Street,,Boerne,TX,78006,,"6 STAUDT STREET, BOERNE, TX 78006",29.80625025657116,-98.72310126099804,Street Address,TX,SUCCESSFUL ADDRESS,130,2014-08-13,504 days 00:00:00,2015-12-30
2294,300 S Wilson St,,Birchwood,WI,54817,,"300 S WILSON ST, BIRCHWOOD, WI 54817",45.65415382330413,-91.55378906939654,Street Address,WI,SUCCESSFUL ADDRESS,130,2018-06-19,893 days 00:00:00,2020-11-28
7230,44550 Tall Timbers Rd,,Tall Timbers,MD,20690,,"44550 TALL TIMBERS RD, TALL TIMBERS, MD 20690",38.16725295388606,-76.5365584605676,Street Address,MD,SUCCESSFUL ADDRESS,130,2019-06-20,588 days 00:00:00,2021-01-28
8108,111 South Commercial,,Temple,Oklahoma,73568,,"111 South Commercial, Temple, Oklahoma 73568",34.2705300000001,-98.2358179999999,Street Address,OK,SUCCESSFUL ADDRESS,131,2008-03-20,889 days 00:00:00,2010-08-26
10299,540 Reno Street,,Rochester,PA,15074,,"540 RENO STREET, ROCHESTER, PA 15074",40.70795076407348,-80.27860802288173,Street Address,PA,SUCCESSFUL ADDRESS,131,2008-07-23,709 days 00:00:00,2010-07-02
12767,311 Miner Ave E,,Ladysmith,WI,54848,,"311 MINER AVE E, LADYSMITH, WI 54848",45.46469247876894,-91.09764478946744,Street Address,WI,SUCCESSFUL ADDRESS,131,2015-08-12,597 days 00:00:00,2017-03-31
12620,554 River Road,,Hollis,ME,04042,,"554 RIVER ROAD, HOLLIS, ME 04042",43.63728807479612,-70.60258865444706,Street Address,ME,SUCCESSFUL ADDRESS,133,2020-09-08,885 days 00:00:00,2023-02-10
2977,37 Doak Street,,Grenada,MS,38901,,"37 DOAK STREET, GRENADA, MS 38901",33.785849855771545,-89.80351002243202,Street Address,MS,SUCCESSFUL ADDRESS,133,2020-09-09,556 days 00:00:00,2022-03-19
8563,225 Center St,,Ridgway,PA,15853,,"225 CENTER ST, RIDGWAY, PA 15853",41.42103643150817,-78.72939846667636,Street Address,PA,SUCCESSFUL ADDRESS,134,2010-11-22,614 days 00:00:00,2012-07-28
10628,814 Washington Street,,Natchitoches,Louisiana,71457,,"814 Washington Street, Natchitoches, Louisiana 71457",31.7639140000001,-93.0860439999999,Street Address,LA,SUCCESSFUL ADDRESS,134,2016-02-16,418 days 00:00:00,2017-04-09
19272,1175 Osage Street,# 100,Denver,CO,80204,,"1175 OSAGE STREET #100, DENVER, CO 80204",39.734905550816976,-105.00576782108595,Street Address,CO,SUCCESSFUL ADDRESS,134,2021-02-13,544 days 00:00:00,2022-08-11
19480,3312 Pennsylvania Avenue,,Weirton,WV,26062,,"3312 Pennsylvania Avenue, Weirton, WV 26062",40.40807769982321,-80.53898779998498,Street Address,WV,SUCCESSFUL ADDRESS,135,2002-11-02,427 days 00:00:00,2004-01-03
14519,9720 South 1300 East,,Sandy,UT,84094,,"9720 SOUTH 1300 EAST, SANDY, UT 84094",40.574873980249066,-111.8538567592188,Street Address,UT,SUCCESSFUL ADDRESS,135,2009-03-31,890 days 00:00:00,2011-09-07
18642,14717 Curtis Street,,Detroit,MI,48235,,"14717 CURTIS STREET, DETROIT, MI 48235",42.422865241309054,-83.19164789028645,Street Address,MI,SUCCESSFUL ADDRESS,135,2010-05-23,947 days 00:00:00,2012-12-25
9122,19 Cushing Road,,Friendship,ME,4547,,"19 CUSHING ROAD, FRIENDSHIP, ME 4547",43.98591199969242,-69.3303130000155,Street Address,ME,SUCCESSFUL ADDRESS,135,2019-11-27,619 days 00:00:00,2021-08-07
3808,126 Washington Ave,,Bridgeport,CT,6604,,"126 WASHINGTON AVE, BRIDGEPORT, CT 6604",41.17676200012736,-73.19782500022322,Street Address,CT,SUCCESSFUL ADDRESS,135,2022-03-09,621 days 00:00:00,2023-11-20
6048,233 E Crook Ave,,Goldfield,NV,89013,,"233 E CROOK AVE, GOLDFIELD, NV 89013",37.707900820706605,-117.2333543996991,Street Address,NV,SUCCESSFUL ADDRESS,136,2006-07-19,729 days 00:00:00,2008-07-17
15534,365 Emerson Ave,,Plainfield,NJ,07062,,"365 EMERSON AVE, PLAINFIELD, NJ 07062",40.63342956592426,-74.40435843783499,Street Address,NJ,SUCCESSFUL ADDRESS,136,2010-10-29,969 days 00:00:00,2013-06-24
13119,110 East 6Th Street,,Ordway,CO,81063,,"110 EAST 6TH STREET, ORDWAY, CO 81063",38.22197557671,-103.75615758763904,Street Address,CO,SUCCESSFUL ADDRESS,136,2022-06-25,846 days 00:00:00,2024-10-18
4404,2819 W 21St Pl,,Chicago,IL,60623,,"2819 W 21ST PL, CHICAGO, IL 60623",41.85258686478678,-87.69624909018971,Street Address,IL,SUCCESSFUL ADDRESS,137,2010-01-29,896 days 00:00:00,2012-07-13
11301,1718 Pleasant St,,Walla Walla,WA,99362,,"1718 PLEASANT ST, WALLA WALLA, WA 99362",46.06180281176071,-118.29992692884056,Street Address,WA,SUCCESSFUL ADDRESS,137,2021-05-07,878 days 00:00:00,2023-10-02
4578,9745 Prospect Avenue,,Santee,CA,92071,,"9745 PROSPECT AVENUE, SANTEE, CA 92071",32.83091174834961,-116.98427770823837,Street Address,CA,SUCCESSFUL ADDRESS,138,2012-01-17,823 days 00:00:00,2014-04-19
15866,144 4Th Avenue Northeast,,Gladstone,MI,49837,,"144 4th Avenue Northeast, Gladstone, MI 49837",45.853042871642565,-87.01893516014292,Street Address,MI,SUCCESSFUL ADDRESS,138,2014-04-28,900 days 00:00:00,2016-10-14
6901,201 North Bardstown Road,,Mount Washington,Kentucky,40047,,"201 North Bardstown Road, Mount Washington, Kentucky 40047",38.0489490000001,-85.5437779999999,Street Address,KY,SUCCESSFUL ADDRESS,138,2021-06-16,991 days 00:00:00,2024-03-03
3975,900 Main Street,,Shiloh,NJ,08353,,"900 Main Street, Shiloh, NJ 08353",39.45677976171286,-75.29639888279543,Street Address,NJ,SUCCESSFUL ADDRESS,139,2008-06-15,489 days 00:00:00,2009-10-17
8220,5304 Mecklenburg Shrine Club Road,,Charlotte,NC,28215,,"5304 Mecklenburg Shrine Club Road, Charlotte, NC 28215",35.24386423037052,-80.65759511758867,Street Address,NC,SUCCESSFUL ADDRESS,139,2013-07-12,718 days 00:00:00,2015-06-30
1279,301 Chestnut Street,,Chaska,Minnesota,55318,,"301 Chestnut Street, Chaska, Minnesota 55318",44.7472910000001,-93.3334219999999,Street Address,MN,SUCCESSFUL ADDRESS,140,2005-05-17,696 days 00:00:00,2007-04-13
7596,4330 N 62Nd St,,Scottsdale,AZ,85251,,"4330 N 62ND ST, SCOTTSDALE, AZ 85251",33.49970841420855,-111.94810594078832,Street Address,AZ,SUCCESSFUL ADDRESS,140,2014-10-07,563 days 00:00:00,2016-04-22
17509,500 South Corona Mall,,Corona,CA,92879,,"500 SOUTH CORONA MALL, CORONA, CA 92879",33.876973265963464,-117.5668109271553,Street Address,CA,SUCCESSFUL ADDRESS,140,2020-08-31,548 days 00:00:00,2022-03-02
17837,200 South Hickory Hill Drive,,Ballinger,TX,76821,,"200 SOUTH HICKORY HILL DRIVE, BALLINGER, TX 76821",31.720452543476693,-99.95843628421004,Street Address,TX,SUCCESSFUL ADDRESS,140,2023-06-08,894 days 00:00:00,2025-11-18
15961,12350 Industry Way,,Anchorage,AK,99515,,"12350 INDUSTRY WAY, ANCHORAGE, AK 99515",61.10911956673928,-149.86229126829636,Street Address,AK,SUCCESSFUL ADDRESS,140,2023-07-19,447 days 00:00:00,2024-10-08
17087,2300 Prince St,,Conway,AR,72032,,"2300 PRINCE ST, CONWAY, AR 72032",35.09280333125263,-92.46153272129354,Street Address,AR,SUCCESSFUL ADDRESS,141,2022-05-21,942 days 00:00:00,2024-12-18
12187,1850 Se Ranson Road,,Lees Summit,MO,64082,,"1850 SE RANSON ROAD, LEES SUMMIT, MO 64082",38.88453742693005,-94.34427486381028,Street Address,MO,SUCCESSFUL ADDRESS,142,2009-01-01,940 days 00:00:00,2011-07-30
17247,1500 Strongs Ave,,Stevens Point,WI,54481,,"1500 STRONGS AVE, STEVENS POINT, WI 54481",44.52026082176133,-89.5815785588021,Street Address,WI,SUCCESSFUL ADDRESS,142,2017-02-24,500 days 00:00:00,2018-07-09
3593,528 East Merriman Avenue,,Wynne,Arkansas,72396,,"528 East Merriman Avenue, Wynne, Arkansas 72396",35.2572680000001,-91.1999149999999,Street Address,AR,SUCCESSFUL ADDRESS,142,2017-07-02,475 days 00:00:00,2018-10-20
17354,204 Burt Blvd,,Benton,LA,71006,,"204 BURT BLVD, BENTON, LA 71006",32.67998863529781,-93.74362842662411,Street Address,LA,SUCCESSFUL ADDRESS,142,2019-03-21,461 days 00:00:00,2020-06-24
16148,1683 Main St,,E Hartford,CT,6108,,"1683 MAIN ST, E HARTFORD, CT 6108",41.78384500021647,-72.63389200023691,Street Address,CT,SUCCESSFUL ADDRESS,144,2007-11-30,935 days 00:00:00,2010-06-22
3590,8700 Central Avenue,,Capitol Heights,MD,20743,,"8700 CENTRAL AVENUE, CAPITOL HEIGHTS, MD 20743",38.89079540317257,-76.8554387846424,Street Address,MD,SUCCESSFUL ADDRESS,144,2018-06-08,777 days 00:00:00,2020-07-24
4847,1680 Capital One Drive,,Mclean,Virginia,22102,,"1680 Capital One Drive, Mclean, Virginia 22102",38.924584,-77.2129809999999,Street Address,VA,SUCCESSFUL ADDRESS,145,2000-09-14,480 days 00:00:00,2002-01-07
6691,2232 Resort Pike Road,,Petoskey,MI,49770,,"2232 Resort Pike Road, Petoskey, MI 49770",45.34489637767932,-84.99645782669823,Street Address,MI,SUCCESSFUL ADDRESS,145,2000-10-11,858 days 00:00:00,2003-02-16
5537,375 N 700 W,,Panguitch,UT,84759,,"375 N 700 W, PANGUITCH, UT 84759",37.82869919350562,-112.45213671101688,Street Address,UT,SUCCESSFUL ADDRESS,145,2004-11-24,982 days 00:00:00,2007-08-03
4772,323 Camino De La Placitas,,Taos,NM,87571-5913,,"323 Camino De La Placitas, Taos, NM 87571-5913",36.41048900439073,-105.57393209806288,Street Address,NM,SUCCESSFUL ADDRESS,145,2006-01-18,527 days 00:00:00,2007-06-29
13819,13794 Prairie Center Circle,,Cheyenne,WY,82009,,"13794 PRAIRIE CENTER CIRCLE, CHEYENNE, WY 82009",41.149765811757874,-104.6467636958071,Street Address,WY,SUCCESSFUL ADDRESS,145,2011-04-21,562 days 00:00:00,2012-11-03
752,916 Highway 82 Bypass,,Greenwood,Mississippi,38935,,"916 Highway 82 Bypass, Greenwood, Mississippi 38935",33.5226890000001,-90.2034799999999,Street Address,MS,SUCCESSFUL ADDRESS,145,2011-05-18,419 days 00:00:00,2012-07-10
5458,545 Ohohia Street,,Honolulu,HI,96819,,"545 OHOHIA STREET, HONOLULU, HI 96819",21.33461554265188,-157.90735291938788,Street Address,HI,SUCCESSFUL ADDRESS,145,2012-04-06,527 days 00:00:00,2013-09-15
1210,120 Hegeman Ave,,Colchester,VT,5446,,"120 HEGEMAN AVE, COLCHESTER, VT 5446",44.50747399972544,-73.1467950003596,Street Address,VT,SUCCESSFUL ADDRESS,145,2022-11-03,439 days 00:00:00,2024-01-16
17569,14309 Manchester Road,,Ballwin,MO,63011,,"14309 MANCHESTER ROAD, BALLWIN, MO 63011",38.59324337250408,-90.51051728947374,Street Address,MO,SUCCESSFUL ADDRESS,146,2008-05-19,794 days 00:00:00,2010-07-22
3440,5553 Cormorant Ave,,Ewa Beach,HI,96706,,"5553 CORMORANT AVE, EWA BEACH, HI 96706",21.320005721014965,-157.9820689043491,Street Address,HI,SUCCESSFUL ADDRESS,146,2013-10-30,990 days 00:00:00,2016-07-16
3846,490 Post Street,,San Francisco,CA,94102,,"490 POST STREET, SAN FRANCISCO, CA 94102",37.78829853192117,-122.4098752563049,Street Address,CA,SUCCESSFUL ADDRESS,146,2019-10-31,856 days 00:00:00,2022-03-05
4527,317 Old Mountain Road,,Pocahontas,VA,24635,,"317 OLD MOUNTAIN ROAD, POCAHONTAS, VA 24635",37.29719135210477,-81.3654337353755,Street Address,VA,SUCCESSFUL ADDRESS,147,2004-06-21,629 days 00:00:00,2006-03-12
5340,200 East Camden Wyoming Avenue,,Camden,DE,19934-1303,,"200 East Camden Wyoming Avenue, Camden, DE 19934-1303",39.11404178289683,-75.54601364209756,Street Address,DE,SUCCESSFUL ADDRESS,147,2008-10-09,528 days 00:00:00,2010-03-21
15314,18 North Main Street,,Mechanicsburg,OH,43044,,"18 North Main Street, Mechanicsburg, OH 43044",40.07263404973189,-83.55613824243287,Street Address,OH,SUCCESSFUL ADDRESS,148,2020-01-26,454 days 00:00:00,2021-04-24
2676,30 Main Street,,Middlebury,Vermont,05753,,"30 Main Street, Middlebury, Vermont 05753",44.0141490000001,-73.1681589999999,Street Address,VT,SUCCESSFUL ADDRESS,148,2022-12-20,561 days 00:00:00,2024-07-03
19754,14141 S Pennsylvania,,Oklahoma City,OK,73170,,"14141 S PENNSYLVANIA, OKLAHOMA CITY, OK 73170",35.327837578108145,-97.54944860883391,Street Address,OK,SUCCESSFUL ADDRESS,149,2000-08-18,995 days 00:00:00,2003-05-10
3578,1254 North Main Street,,Lapeer,MI,48446,,"1254 NORTH MAIN STREET, LAPEER, MI 48446",43.06070288590549,-83.31861435859564,Street Address,MI,SUCCESSFUL ADDRESS,149,2004-04-17,530 days 00:00:00,2005-09-29
4327,1101 St Joseph Street,,Waveland,MS,39576,,"1101 ST JOSEPH STREET, WAVELAND, MS 39576",30.29929088566568,-89.38028322890254,Street Address,MS,SUCCESSFUL ADDRESS,149,2018-11-09,414 days 00:00:00,2019-12-28
6041,4809 West Fairview Avenue,,Boise,ID,83706,,"4809 WEST FAIRVIEW AVENUE, BOISE, ID 83706",43.61868467217798,-116.24206169008002,Street Address,ID,SUCCESSFUL ADDRESS,150,2013-08-19,598 days 00:00:00,2015-04-09
10170,22000 Albion Road,,Strongsville,OH,44149,,"22000 Albion Road, Strongsville, OH 44149",41.3313604520679,-81.86774326361433,Street Address,OH,SUCCESSFUL ADDRESS,150,2013-10-31,457 days 00:00:00,2015-01-31
779,2180 East 4500 South,,Salt Lake City,UT,84117,,"2180 EAST 4500 SOUTH, SALT LAKE CITY, UT 84117",40.67352529223191,-111.82855900156709,Street Address,UT,SUCCESSFUL ADDRESS,150,2015-11-12,458 days 00:00:00,2017-02-12
12306,9320 Merrimac Trail,,Williamsburg,VA,23185,,"9320 MERRIMAC TRAIL, WILLIAMSBURG, VA 23185",37.21661485507659,-76.60356281910232,Street Address,VA,SUCCESSFUL ADDRESS,150,2023-09-23,618 days 00:00:00,2025-06-02
15657,16200 Antioch Road,,Overland Park,KS,66085,,"16200 ANTIOCH ROAD, OVERLAND PARK, KS 66085",38.83564121301875,-94.69299307320355,Street Address,KS,SUCCESSFUL ADDRESS,151,2001-12-18,772 days 00:00:00,2004-01-29
11278,2375 Oakley Road,,Raymond,MS,39154,,"2375 OAKLEY ROAD, RAYMOND, MS 39154",32.219286861866074,-90.50961903329592,Street Address,MS,SUCCESSFUL ADDRESS,151,2003-03-03,599 days 00:00:00,2004-10-22
10497,111 O Street Nw,,Washington,DC,20001,,"111 O STREET NW, WASHINGTON, DC 20001",38.90899547012798,-77.01325324799296,Street Address,DC,SUCCESSFUL ADDRESS,151,2013-11-07,513 days 00:00:00,2015-04-04
14878,6911 N Bdi Blvd,,Douglas,AZ,85607,,"6911 N BDI BLVD, DOUGLAS, AZ 85607",31.46242838075857,-109.59122991642964,Street Address,AZ,SUCCESSFUL ADDRESS,151,2019-11-15,540 days 00:00:00,2021-05-08
17577,1000 Fairgrounds Rd,,Globe,AZ,85501,,"1000 FAIRGROUNDS RD, GLOBE, AZ 85501",33.416393537326655,-110.71078484454868,Street Address,AZ,SUCCESSFUL ADDRESS,152,2002-07-23,425 days 00:00:00,2003-09-21
5558,80 W 126Th St 82,,New York,NY,10027,,"80 W 126TH ST 82, NEW YORK, NY 10027",40.808153999954925,-73.94437300010881,Street Address,NY,SUCCESSFUL ADDRESS,154,2001-04-13,601 days 00:00:00,2002-12-05
6330,1994 Cougar Drive,,Pavillion,WY,82523,,"1994 COUGAR DRIVE, PAVILLION, WY 82523",43.24635273471667,-108.684948919395,Street Address,WY,SUCCESSFUL ADDRESS,154,2007-01-13,859 days 00:00:00,2009-05-21
8534,688 Spring Street Northwest,,Atlanta,GA,30308,,"688 SPRING STREET NORTHWEST, ATLANTA, GA 30308",33.77344754143486,-84.3891694738837,Street Address,GA,SUCCESSFUL ADDRESS,154,2011-04-04,647 days 00:00:00,2013-01-10
14808,3038 W 850 S,,Bunker Hill,IN,46914,,"3038 W 850 S, BUNKER HILL, IN 46914",40.64593010464951,-86.13530036827473,Street Address,IN,SUCCESSFUL ADDRESS,154,2015-02-19,890 days 00:00:00,2017-07-28
18276,8950 Roebuck Blvd,,Birmingham,AL,35206,,"8950 ROEBUCK BLVD, BIRMINGHAM, AL 35206",33.58603092223736,-86.71121877221623,Street Address,AL,SUCCESSFUL ADDRESS,154,2023-10-15,950 days 00:00:00,2026-05-22
17371,1821 1St Ave,,Longview,WA,98632,,"1821 1ST AVE, LONGVIEW, WA 98632",46.14111235041599,-122.91872155725832,Street Address,WA,SUCCESSFUL ADDRESS,155,2001-01-02,920 days 00:00:00,2003-07-11
2810,316 Washington St,,Wenatchee,WA,98801,,"316 WASHINGTON ST, WENATCHEE, WA 98801",47.42148196207224,-120.31541929554136,Street Address,WA,SUCCESSFUL ADDRESS,155,2014-05-29,452 days 00:00:00,2015-08-24
11136,4802 Barnes City Rd,,Montezuma,IA,50171,,"4802 BARNES CITY RD, MONTEZUMA, IA 50171",41.573682256405725,-92.52637483958124,Street Address,IA,SUCCESSFUL ADDRESS,156,2007-07-17,910 days 00:00:00,2010-01-12
7018,104 Vickers Dr,,Chestertown,MD,21620,,"104 VICKERS DR, CHESTERTOWN, MD 21620",39.223676596084175,-76.08947046622436,Street Address,MD,SUCCESSFUL ADDRESS,156,2014-09-09,396 days 00:00:00,2015-10-10
339,31 Pine Meadow Dr,,Colchester,VT,5446,,"31 PINE MEADOW DR, COLCHESTER, VT 5446",44.54861400007206,-73.2728870000622,Street Address,VT,SUCCESSFUL ADDRESS,156,2020-02-07,988 days 00:00:00,2022-10-22
10725,6161 West Charleston Blvd,,Las Vegas,NV,89146,,"6161 WEST CHARLESTON BLVD, LAS VEGAS, NV 89146",36.15686596185693,-115.2268781366806,Street Address,NV,SUCCESSFUL ADDRESS,156,2021-06-22,517 days 00:00:00,2022-11-21
12416,270 Route 10,,Barrigada,GU,96913,,"270 ROUTE 10, BARRIGADA, GU 96913",13.465402531564829,144.80170066295344,Street Address,GU,SUCCESSFUL ADDRESS,157,2001-08-06,414 days 00:00:00,2002-09-24
9271,11085 State Highway 506,,Hillsboro,OH,45133,,"11085 State Highway 506, Hillsboro, OH 45133",39.1522128727292,-83.48438874427148,Street Address,OH,SUCCESSFUL ADDRESS,157,2004-10-21,701 days 00:00:00,2006-09-22
4730,3065 Iron Springs Road,,Skull Valley,AZ,86338,,"3065 Iron Springs Road, Skull Valley, AZ 86338",34.50348752445284,-112.6838149196597,Street Address,AZ,SUCCESSFUL ADDRESS,157,2014-02-19,986 days 00:00:00,2016-11-01
2659,700 Northeast 87Th Avenue,,Vancouver,WA,98664,,"700 NORTHEAST 87TH AVENUE, VANCOUVER, WA 98664",45.62591646217626,-122.58449896560752,Street Address,WA,SUCCESSFUL ADDRESS,157,2018-02-04,958 days 00:00:00,2020-09-19
15922,1375 East Schaumburg Road,,Schaumburg,IL,60194,,"1375 EAST SCHAUMBURG ROAD, SCHAUMBURG, IL 60194",42.02824385682314,-88.04611738928503,Street Address,IL,SUCCESSFUL ADDRESS,157,2023-10-26,540 days 00:00:00,2025-04-18
12756,203 Aspinall Avenue,,Hagatna,GU,96910,,"203 ASPINALL AVENUE, HAGATNA, GU 96910",13.474143590601631,144.75012630569313,Street Address,GU,SUCCESSFUL ADDRESS,158,2010-07-31,838 days 00:00:00,2012-11-15
17586,12161 Manchester Road,,Des Peres,MO,63131,,"12161 MANCHESTER ROAD, DES PERES, MO 63131",38.602739230518736,-90.4380528868564,Street Address,MO,SUCCESSFUL ADDRESS,158,2013-11-23,795 days 00:00:00,2016-01-27
10954,346 North Mayo Trail,,Pikeville,Kentucky,41501,,"346 North Mayo Trail, Pikeville, Kentucky 41501",37.1083760000001,-84.0882769999999,Street Address,KY,SUCCESSFUL ADDRESS,159,2001-08-04,778 days 00:00:00,2003-09-21
8051,890 Free Line Drive,,Pine Bluff,AR,71603,,"890 FREE LINE DRIVE, PINE BLUFF, AR 71603",34.2204294583144,-92.08170826996688,Street Address,AR,SUCCESSFUL ADDRESS,159,2004-09-19,590 days 00:00:00,2006-05-02
10037,5250 Hickory Valley Road,,Sparta,TN,38583,,"5250 Hickory Valley Road, Sparta, TN 38583",35.85739331716596,-85.42466239411331,Street Address,TN,SUCCESSFUL ADDRESS,159,2015-04-12,756 days 00:00:00,2017-05-07
11083,556 Hazelwood Avenue,,Waynesville,NC,28786,,"556 HAZELWOOD AVENUE, WAYNESVILLE, NC 28786",35.47872629802117,-83.00470454144697,Street Address,NC,SUCCESSFUL ADDRESS,159,2015-09-09,412 days 00:00:00,2016-10-25
8766,55 Mahalani St,,Wailuku,HI,96793,,"55 MAHALANI ST, WAILUKU, HI 96793",20.88816198301949,-156.48827311941656,Street Address,HI,SUCCESSFUL ADDRESS,160,2003-06-19,543 days 00:00:00,2004-12-13
1191,110 First Street,,Jonesburg,Missouri,63351,,"110 First Street, Jonesburg, Missouri 63351",38.8531610000001,-91.3060719999999,Street Address,MO,SUCCESSFUL ADDRESS,160,2007-08-01,449 days 00:00:00,2008-10-23
3597,701 16Th Ave Sw,,Mandan,ND,58554,,"701 16TH AVE SW, MANDAN, ND 58554",46.81819177504566,-100.91336499784803,Street Address,ND,SUCCESSFUL ADDRESS,160,2018-03-22,769 days 00:00:00,2020-04-29
17975,202 S Humbolt St,,Canyon City,OR,97820,,"202 S HUMBOLT ST, CANYON CITY, OR 97820",44.38738844668688,-118.95046101043644,Street Address,OR,SUCCESSFUL ADDRESS,160,2018-10-15,417 days 00:00:00,2019-12-06
9130,3210 Avenue B,,Scottsbluff,NE,69361,,"3210 AVENUE B, SCOTTSBLUFF, NE 69361",41.87853049285098,-103.66634985988728,Street Address,NE,SUCCESSFUL ADDRESS,160,2018-11-26,801 days 00:00:00,2021-02-04
17288,3015 West Palmetto Street,,Florence,SC,29501,,"3015 WEST PALMETTO STREET, FLORENCE, SC 29501",34.172410877506834,-79.83893497864464,Street Address,SC,SUCCESSFUL ADDRESS,161,2000-01-11,545 days 00:00:00,2001-07-09
7144,301 Spring Garden Road,,Hammonton,NJ,08037,,"301 SPRING GARDEN ROAD, HAMMONTON, NJ 08037",39.68016486177736,-74.86333830919021,Street Address,NJ,SUCCESSFUL ADDRESS,161,2005-02-09,554 days 00:00:00,2006-08-17
5116,5116 Riverwood Pkwy,,Evans,GA,30809,,"5116 RIVERWOOD PKWY, EVANS, GA 30809",33.58702135796657,-82.18915607861224,Street Address,GA,SUCCESSFUL ADDRESS,161,2017-01-11,747 days 00:00:00,2019-01-28
14002,101 W Forest St,,Lowell,MA,1851,,"101 W FOREST ST, LOWELL, MA 1851",42.620394999888994,-71.33234400026389,Street Address,MA,SUCCESSFUL ADDRESS,161,2017-09-14,543 days 00:00:00,2019-03-11
1021,3915 North Wildcat Way 2300 East,,Filer,ID,83328,,"3915 NORTH WILDCAT WAY 2300 EAST, FILER, ID 83328",42.565556625044486,-114.59582847885989,Street Address,ID,SUCCESSFUL ADDRESS,162,2004-12-06,523 days 00:00:00,2006-05-13
1945,123 North Jefferson Street,,Converse,Indiana,46919,,"123 North Jefferson Street, Converse, Indiana 46919",39.6549340000001,-88.0279009999999,Street Address,IN,SUCCESSFUL ADDRESS,162,2013-04-27,574 days 00:00:00,2014-11-22
17871,21554 W 9000 S,,Duchesne,UT,84021,,"21554 W 9000 S, DUCHESNE, UT 84021",40.180124493452645,-110.3877948802256,Street Address,UT,SUCCESSFUL ADDRESS,163,2005-05-20,521 days 00:00:00,2006-10-23
210,3821 West Spring Creek Parkway,,Plano,TX,75023,,"3821 WEST SPRING CREEK PARKWAY, PLANO, TX 75023",33.056995313860284,-96.7682966732624,Street Address,TX,SUCCESSFUL ADDRESS,163,2015-01-02,410 days 00:00:00,2016-02-16
3247,65 West Greenbrook Rd,,North Caldwell,NJ,07006,,"65 WEST GREENBROOK RD, NORTH CALDWELL, NJ 07006",40.87400799391325,-74.26580993487211,Street Address,NJ,SUCCESSFUL ADDRESS,163,2017-04-18,631 days 00:00:00,2019-01-09
7542,1666 East Bert Kouns Industrial Loop,,Shreveport,LA,71105,,"1666 EAST BERT KOUNS INDUSTRIAL LOOP, SHREVEPORT, LA 71105",32.43179854330311,-93.71316638856162,Street Address,LA,SUCCESSFUL ADDRESS,163,2020-03-16,548 days 00:00:00,2021-09-15
10376,5670 Doffing Rd,,Mission,TX,78574,,"5670 DOFFING RD, MISSION, TX 78574",26.286519269933915,-98.37615600341678,Street Address,TX,SUCCESSFUL ADDRESS,165,2013-10-10,579 days 00:00:00,2015-05-12
9234,25 N Sumner Ave,,Newcastle,WY,82701,,"25 N SUMNER AVE, NEWCASTLE, WY 82701",43.85609433714005,-104.20337190856831,Street Address,WY,SUCCESSFUL ADDRESS,165,2014-09-22,883 days 00:00:00,2017-02-21
9981,339 East Dogwood Avenue,,Palmer,AK,99645,,"339 EAST DOGWOOD AVENUE, PALMER, AK 99645",61.6022503784571,-149.11005280217103,Street Address,AK,SUCCESSFUL ADDRESS,165,2022-10-24,738 days 00:00:00,2024-10-31
13205,308 Courthouse Drive,# 2,Cavalier,ND,58220,,"308 COURTHOUSE DRIVE #2, CAVALIER, ND 58220",48.79105364796505,-97.62562927404667,Street Address,ND,SUCCESSFUL ADDRESS,166,2003-05-09,662 days 00:00:00,2005-03-01
11832,5440 Belair Road,,Baltimore,MD,21206,,"5440 BELAIR ROAD, BALTIMORE, MD 21206",39.33954724507378,-76.55011052758884,Street Address,MD,SUCCESSFUL ADDRESS,166,2014-02-28,611 days 00:00:00,2015-11-01
1027,566 West Prairie Avenue,,Coeur D Alene,ID,83815,,"566 WEST PRAIRIE AVENUE, COEUR D ALENE, ID 83815",47.74406798793781,-116.79407857824668,Street Address,ID,SUCCESSFUL ADDRESS,166,2018-02-10,441 days 00:00:00,2019-04-27
11277,3841 Leeds Ave,,North Charleston,SC,29405,,"3841 LEEDS AVE, NORTH CHARLESTON, SC 29405",32.84593285171436,-80.01370684393729,Street Address,SC,SUCCESSFUL ADDRESS,166,2018-07-12,456 days 00:00:00,2019-10-11
265,2035 Limestone Road,,Wilmington,Delaware,19808,,"2035 Limestone Road, Wilmington, Delaware 19808",42.815386,-72.0245279999999,Street Address,DE,SUCCESSFUL ADDRESS,166,2019-04-01,797 days 00:00:00,2021-06-06
967,6110 South Minnesota Avenue,,Sioux Falls,SD,57108,,"6110 SOUTH MINNESOTA AVENUE, SIOUX FALLS, SD 57108",43.488886542932775,-96.72623058342826,Street Address,SD,SUCCESSFUL ADDRESS,166,2020-08-11,968 days 00:00:00,2023-04-06
2609,1061 Main Street,,Follansbee,WV,26037,,"1061 Main Street, Follansbee, WV 26037",40.330298900302914,-80.5966134004462,Street Address,WV,SUCCESSFUL ADDRESS,166,2023-12-03,695 days 00:00:00,2025-10-28
1769,2201 Main Street,,Torrington,Wyoming,82240,,"2201 Main Street, Torrington, Wyoming 82240",42.0663900000001,-104.184365,Street Address,WY,SUCCESSFUL ADDRESS,167,2009-07-14,478 days 00:00:00,2010-11-04
336,130 Kailua Road,,Kailua,HI,96734,,"130 KAILUA ROAD, KAILUA, HI 96734",21.396940524573854,-157.73111686710092,Street Address,HI,SUCCESSFUL ADDRESS,167,2011-05-06,724 days 00:00:00,2013-04-29
8687,1400 Braman Ave,,Bismarck,ND,58501,,"1400 BRAMAN AVE, BISMARCK, ND 58501",46.8206565768511,-100.77038410130622,Street Address,ND,SUCCESSFUL ADDRESS,167,2012-05-31,870 days 00:00:00,2014-10-18
739,6 Crescent Ln,,Barre,VT,5641,,"6 CRESCENT LN, BARRE, VT 5641",44.18619999974632,-72.46892700022534,Street Address,VT,SUCCESSFUL ADDRESS,167,2017-04-06,433 days 00:00:00,2018-06-13
795,10838 State Highway 337,,Tijeras,NM,87059-8605,,"10838 State Highway 337, Tijeras, NM 87059-8605",34.97871584673806,-106.32122484084486,Street Address,NM,SUCCESSFUL ADDRESS,167,2017-11-14,729 days 00:00:00,2019-11-13
8438,60 Mill Street,,Salem,WV,26426,,"60 Mill Street, Salem, WV 26426",39.28361339981704,-80.55982330043032,Street Address,WV,SUCCESSFUL ADDRESS,167,2021-09-03,960 days 00:00:00,2024-04-20
7083,15245 Bluebird Street Northwest,,Andover,MN,55304,,"15245 BLUEBIRD STREET NORTHWEST, ANDOVER, MN 55304",45.24779925398827,-93.30537606921582,Street Address,MN,SUCCESSFUL ADDRESS,168,2014-08-20,747 days 00:00:00,2016-09-05
10324,499 Old Columbia Rd,,Harrisonburg,LA,71340,,"499 OLD COLUMBIA RD, HARRISONBURG, LA 71340",31.77490266428999,-91.83703161856376,Street Address,LA,SUCCESSFUL ADDRESS,169,2002-12-19,718 days 00:00:00,2004-12-06
6300,36245 Main St,,Whitehall,WI,54773,,"36245 MAIN ST, WHITEHALL, WI 54773",44.3668904107032,-91.3173303112736,Street Address,WI,SUCCESSFUL ADDRESS,169,2013-08-31,637 days 00:00:00,2015-05-30
2674,403 East Broad Street,,Raymond,Illinois,62560,,"403 East Broad Street, Raymond, Illinois 62560",39.3195040000001,-89.5714639999999,Street Address,IL,SUCCESSFUL ADDRESS,169,2014-07-02,447 days 00:00:00,2015-09-22
1081,824 North Market Street,Suite 100,Wilmington,Delaware,19801,,"824 North Market Street, Suite 100, Wilmington, Delaware 19801",42.881335,-71.3254349999999,Street Address,DE,SUCCESSFUL ADDRESS,169,2023-10-25,817 days 00:00:00,2026-01-19
14085,1320 E 19Th Ave,,Gary,IN,46407,,"1320 E 19TH AVE, GARY, IN 46407",41.58495115693274,-87.31995700242055,Street Address,IN,SUCCESSFUL ADDRESS,170,2023-01-19,597 days 00:00:00,2024-09-07
5490,1506 Canterbury Rd,,Lakewood,NJ,8701,,"1506 CANTERBURY RD, LAKEWOOD, NJ 8701",40.10668999983881,-74.23274699976729,Street Address,NJ,SUCCESSFUL ADDRESS,171,2009-09-15,577 days 00:00:00,2011-04-15
10081,323 West High St,,Tucumcari,NM,88401,,"323 WEST HIGH ST, TUCUMCARI, NM 88401",35.17644954264019,-103.72822148038732,Street Address,NM,SUCCESSFUL ADDRESS,171,2013-05-31,863 days 00:00:00,2015-10-11
15158,2255 East 8Th North,,Mountain Home,ID,83647,,"2255 EAST 8TH NORTH, MOUNTAIN HOME, ID 83647",43.136715256520354,-115.67316124818748,Street Address,ID,SUCCESSFUL ADDRESS,172,2001-04-23,626 days 00:00:00,2003-01-09
12662,13650 N Manito Rd,,Manito,IL,61546,,"13650 N MANITO RD, MANITO, IL 61546",40.51439085591647,-89.78363455111963,Street Address,IL,SUCCESSFUL ADDRESS,172,2007-03-08,649 days 00:00:00,2008-12-16
1682,12300 Anderson Valley Way,,Boonville,CA,95415,,"12300 ANDERSON VALLEY WAY, BOONVILLE, CA 95415",39.02926920811536,-123.38830071732562,Street Address,CA,SUCCESSFUL ADDRESS,175,2001-02-22,602 days 00:00:00,2002-10-17
11249,115 West A Street,,Watonga,Oklahoma,73772,,"115 West A Street, Watonga, Oklahoma 73772",35.8433390000001,-98.4133999999999,Street Address,OK,SUCCESSFUL ADDRESS,175,2004-03-08,784 days 00:00:00,2006-05-01
7941,8837 Fourth Street,,Stuart,OK,74570,,"8837 FOURTH STREET, STUART, OK 74570",34.89783471984051,-96.1008908751352,Street Address,OK,SUCCESSFUL ADDRESS,175,2017-04-12,776 days 00:00:00,2019-05-28
10079,922 Gainesville Highway,,Buford,GA,30518,,"922 GAINESVILLE HIGHWAY, BUFORD, GA 30518",34.144840619042704,-83.96572041869948,Street Address,GA,SUCCESSFUL ADDRESS,177,2002-03-29,458 days 00:00:00,2003-06-30
9061,4242 Slate Hill Road,,Marcellus,NY,13108,,"4242 Slate Hill Road, Marcellus, NY 13108",42.97759513453259,-76.33211139619624,Street Address,NY,SUCCESSFUL ADDRESS,177,2006-05-17,811 days 00:00:00,2008-08-05
7485,3231 South National Avenue,,Springfield,MO,65807,,"3231 SOUTH NATIONAL AVENUE, SPRINGFIELD, MO 65807",37.155101067265846,-93.27808358720438,Street Address,MO,SUCCESSFUL ADDRESS,177,2009-07-26,522 days 00:00:00,2010-12-30
2318,2384 Lemanville Cutoff Rd,,Donaldsonville,LA,70346,,"2384 LEMANVILLE CUTOFF RD, DONALDSONVILLE, LA 70346",30.09727620267639,-90.93751740671698,Street Address,LA,SUCCESSFUL ADDRESS,177,2015-06-11,584 days 00:00:00,2017-01-15
11950,1513 N Douglas Ave,,Tahlequah,OK,74464,,"1513 N DOUGLAS AVE, TAHLEQUAH, OK 74464",35.93592623112356,-94.99933266642266,Street Address,OK,SUCCESSFUL ADDRESS,178,2001-06-04,513 days 00:00:00,2002-10-30
14108,3 Prison Rd,,Jean,NV,89019,,"3 PRISON RD, JEAN, NV 89019",35.773193027188945,-115.3153555237559,Street Address,NV,SUCCESSFUL ADDRESS,178,2004-07-26,875 days 00:00:00,2006-12-18
